[{"id":"shell-10128629","name":"Shell Nvellenu","brand":"shell","country_code":"GH","lat":5.073677,"lng":-2.53956,"address":"Nvelenu ","city":"Nvelenu","state":"","postcode":"233","country":"Ghana","telephone":"+233 55 805 1755","fuels":["Unleaded 95","Diesel"],"amenities":["Self Service","Toilets","Full Service","Truck Parking","High Flow Diesel","Brand Loyalty","Parking","Lube Service","Service Bay"],"payments":["Credit Card","Mobile Payment","Pay at Pump","Fleet Card"],"open24Hours":false,"hours":null,"openStatusRaw":"closed","nextStatusChange":"2026-02-01T06:00:00.588Z"},{"id":"shell-10123849","name":"SHELL TAKORADI-ANAJI ROAD","brand":"shell","country_code":"GH","lat":4.914679,"lng":-1.793419,"address":"Takoradi","city":"Takoradi","state":"","postcode":"233","country":"Ghana","telephone":"+233 26 757 1314","fuels":["Unleaded 95","Diesel"],"amenities":["Self Service","Toilets","Full Service","Truck Parking","High Flow Diesel","Brand Loyalty","Parking","Lube Service","Service Bay","Convenience Store","Tyres & Batteries","WiFi"],"payments":["Credit Card","Mobile Payment","Pay at Pump","Fleet Card"],"open24Hours":false,"hours":null,"openStatusRaw":"closed","nextStatusChange":"2026-02-01T06:00:00.750Z"},{"id":"shell-10123986","name":"SHELL AHWETEISO","brand":"shell","country_code":"GH","lat":5.238469,"lng":-2.010209,"address":"Tarkwa","city":"Tarkwa","state":"","postcode":"233","country":"Ghana","telephone":"+233 24 425 1044","fuels":["Unleaded 95","Diesel"],"amenities":["Car Wash","Self Service","Toilets","Full Service","Truck Parking","High Flow Diesel","Brand Loyalty","Parking","Lube Service"],"payments":["Credit Card","Mobile Payment","Pay at Pump","Fleet Card"],"open24Hours":false,"hours":null,"openStatusRaw":"closed","nextStatusChange":"2026-02-01T06:00:00.785Z"},{"id":"shell-10128659","name":"SHELL HIGHWAY","brand":"shell","country_code":"GH","lat":4.901611,"lng":-1.767188,"address":"Takoradi ","city":"Takoradi","state":"","postcode":"233","country":"Ghana","telephone":"+233 24 427 6433","fuels":["Unleaded 98","Unleaded 95","Diesel"],"amenities":["Air/Water","Convenience Store","Self Service","Toilets","Full Service","Truck Parking","High Flow Diesel","Brand Loyalty","Parking","Lube Service","Service Bay"],"payments":["Credit Card","Mobile Payment","Pay at Pump","Fleet Card"],"open24Hours":false,"hours":null,"openStatusRaw":"closed","nextStatusChange":"2026-02-01T06:00:00.802Z"},{"id":"shell-10128665","name":"SHELL AXIM ROAD","brand":"shell","country_code":"GH","lat":4.887326,"lng":-1.76081,"address":"Takoradi","city":"Takoradi","state":"","postcode":"233","country":"Ghana","telephone":"+233 24 437 2296","fuels":["Unleaded 95","Diesel"],"amenities":["Air/Water","Fast Food","Food Store","Self Service","Toilets","Full Service","Truck Parking","High Flow Diesel","Brand Loyalty","Parking","Lube Service","Convenience Store","Other"],"payments":["Credit Card","Mobile Payment","Pay at Pump","Fleet Card"],"open24Hours":false,"hours":null,"openStatusRaw":"closed","nextStatusChange":"2026-02-01T06:00:00.820Z"},{"id":"shell-10128679","name":"SHELL CATHEDRAL","brand":"shell","country_code":"GH","lat":4.90056,"lng":-1.755504,"address":"Takoradi","city":"Takoradi","state":"","postcode":"233","country":"Ghana","telephone":"+233 26 757 1314","fuels":["Unleaded 95","Diesel"],"amenities":["Air/Water","Convenience Store","Self Service","Toilets","Full Service","Truck Parking","High Flow Diesel","Brand Loyalty","Parking","Lube Service","Service Bay","Tyres & Batteries"],"payments":["Credit Card","Mobile Payment","Pay at Pump","Fleet Card"],"open24Hours":false,"hours":null,"openStatusRaw":"closed","nextStatusChange":"2026-02-01T06:00:00.837Z"},{"id":"shell-10128574","name":"SHELL WIRELESS HILL","brand":"shell","country_code":"GH","lat":4.907023,"lng":-1.753153,"address":"Takoradi","city":"Takoradi","state":"","postcode":"233","country":"Ghana","telephone":"+233 24 481 7662","fuels":["Unleaded 95","Diesel"],"amenities":["Air/Water","Convenience Store","Self Service","Toilets","Full Service","Truck Parking","High Flow Diesel","Brand Loyalty","Parking","Lube Service"],"payments":["Credit Card","Mobile Payment","Pay at Pump","Fleet Card"],"open24Hours":false,"hours":null,"openStatusRaw":"closed","nextStatusChange":"2026-02-01T06:00:00.859Z"},{"id":"shell-10128610","name":"SHELL TARKWA","brand":"shell","country_code":"GH","lat":5.304523,"lng":-1.996079,"address":"Tarkwa  Railway station ","city":"Tarkwa  Railway station","state":"","postcode":"233","country":"Ghana","telephone":"+233 24 432 2682","fuels":["Unleaded 98","Unleaded 95","Diesel"],"amenities":["Air/Water","Self Service","Toilets","Full Service","Truck Parking","High Flow Diesel","Brand Loyalty","Parking","Lube Service","Service Bay","Convenience Store"],"payments":["Credit Card","Mobile Payment","Pay at Pump","Fleet Card"],"open24Hours":false,"hours":null,"openStatusRaw":"closed","nextStatusChange":"2026-02-01T06:00:00.877Z"},{"id":"shell-10128724","name":"SHELL ESSIKADU","brand":"shell","country_code":"GH","lat":4.940859,"lng":-1.71275,"address":"SEKONDI","city":"SEKONDI","state":"","postcode":"233","country":"Ghana","telephone":"+233 24 427 6433","fuels":["Unleaded 98","Unleaded 95","Diesel"],"amenities":["Air/Water","Convenience Store","Self Service","Toilets","Full Service","Truck Parking","High Flow Diesel","Brand Loyalty","Parking","Lube Service","Service Bay"],"payments":["Credit Card","Mobile Payment","Pay at Pump","Fleet Card"],"open24Hours":false,"hours":null,"openStatusRaw":"closed","nextStatusChange":"2026-02-01T06:00:00.894Z"},{"id":"shell-10123906","name":"SHELL MPINTSIN","brand":"shell","country_code":"GH","lat":4.976544,"lng":-1.715894,"address":"MPINTSIN","city":"MPINTSIN","state":"","postcode":"233","country":"Ghana","telephone":"+233 24 427 6433","fuels":["Unleaded 95","Diesel"],"amenities":["Toilets","Self Service","Full Service","Truck Parking","High Flow Diesel","Brand Loyalty","Parking","Lube Service","Service Bay","WiFi"],"payments":["Credit Card","Mobile Payment","Pay at Pump","Fleet Card"],"open24Hours":false,"hours":null,"openStatusRaw":"closed","nextStatusChange":"2026-02-01T06:00:00.915Z"},{"id":"shell-10128578","name":"SHELL PRESTEA","brand":"shell","country_code":"GH","lat":5.441442,"lng":-2.137204,"address":"Prestea, Washing Bay","city":"Prestea, Washing Bay","state":"","postcode":"233","country":"Ghana","telephone":"+233 24 432 2682","fuels":["Premium Diesel","Unleaded 95","Diesel"],"amenities":["Self Service","Toilets","Full Service","Truck Parking","High Flow Diesel","Brand Loyalty","Parking","Lube Service","Service Bay"],"payments":["Credit Card","Mobile Payment","Pay at Pump","Fleet Card"],"open24Hours":false,"hours":null,"openStatusRaw":"closed","nextStatusChange":"2026-02-01T06:00:00.949Z"},{"id":"shell-10128601","name":"SHELL TARKWA BOGOSO","brand":"shell","country_code":"GH","lat":5.329913,"lng":-1.979999,"address":"Tarkwa","city":"Tarkwa","state":"","postcode":"233","country":"Ghana","telephone":"+233 24 432 2682","fuels":["Unleaded 95","Diesel"],"amenities":["Air/Water","Convenience Store","Self Service","Toilets","Full Service","Truck Parking","High Flow Diesel","Brand Loyalty","Parking","Lube Service"],"payments":["Credit Card","Mobile Payment","Pay at Pump","Fleet Card"],"open24Hours":false,"hours":null,"openStatusRaw":"closed","nextStatusChange":"2026-02-01T06:00:00.964Z"},{"id":"shell-10128687","name":"SHELL ITUMAN-INCHABAN","brand":"shell","country_code":"GH","lat":5.010437,"lng":-1.671059,"address":"Cape Coast","city":"Cape Coast","state":"","postcode":"233","country":"Ghana","telephone":"+233 24 090 3961","fuels":["Unleaded 95","Diesel"],"amenities":["Air/Water","Self Service","Toilets","Full Service","Truck Parking","High Flow Diesel","Brand Loyalty","Parking","Lube Service","Service Bay","Convenience Store"],"payments":["Credit Card","Mobile Payment","Pay at Pump","Fleet Card"],"open24Hours":false,"hours":null,"openStatusRaw":"closed","nextStatusChange":"2026-02-01T06:00:00.996Z"},{"id":"shell-10123881","name":"SHELL PETEPOM","brand":"shell","country_code":"GH","lat":5.552861,"lng":-1.999638,"address":"Bogoso ","city":"Bogoso","state":"","postcode":"233","country":"Ghana","telephone":"+233 24 327 0270","fuels":["Unleaded 95","Diesel"],"amenities":["Self Service","Toilets","Full Service","Truck Parking","High Flow Diesel","Brand Loyalty","Parking","Lube Service","Service Bay","WiFi"],"payments":["Credit Card","Mobile Payment","Pay at Pump","Fleet Card"],"open24Hours":false,"hours":null,"openStatusRaw":"closed","nextStatusChange":"2026-02-01T06:00:00.059Z"},{"id":"shell-10128638","name":"SHELL NTIAKOKROM","brand":"shell","country_code":"GH","lat":5.512083,"lng":-1.868563,"address":"Damang, Ntiakokrom","city":"Damang, Ntiakokrom","state":"","postcode":"233","country":"Ghana","telephone":"+233 24 137 7472","fuels":["Unleaded 95","Diesel"],"amenities":["Self Service","Toilets","Full Service","Truck Parking","High Flow Diesel","Brand Loyalty","Parking","Lube Service","Service Bay"],"payments":["Credit Card","Mobile Payment","Pay at Pump","Fleet Card"],"open24Hours":false,"hours":null,"openStatusRaw":"closed","nextStatusChange":"2026-02-01T06:00:00.075Z"},{"id":"shell-10128615","name":"SHELL KOMENDA","brand":"shell","country_code":"GH","lat":5.085885,"lng":-1.504656,"address":"Komenda","city":"Komenda","state":"","postcode":"233","country":"Ghana","telephone":"+233 24 228 2717","fuels":["Premium Diesel","Unleaded 95","Diesel"],"amenities":["Air/Water","Self Service","Toilets","Full Service","Truck Parking","High Flow Diesel","Brand Loyalty","Parking","Lube Service","Service Bay","Convenience Store"],"payments":["Credit Card","Mobile Payment","Pay at Pump","Fleet Card"],"open24Hours":false,"hours":null,"openStatusRaw":"closed","nextStatusChange":"2026-02-01T06:00:00.092Z"},{"id":"shell-10128715","name":"SHELL AYENSUDO","brand":"shell","country_code":"GH","lat":5.091741,"lng":-1.442133,"address":"Ayensudo","city":"Ayensudo","state":"","postcode":"233","country":"Ghana","telephone":"+233 24 461 3601","fuels":["Premium Diesel","Unleaded 95","Diesel"],"amenities":["Self Service","Toilets","Full Service","Truck Parking","High Flow Diesel","Brand Loyalty","Parking","Lube Service","Service Bay"],"payments":["Credit Card","Mobile Payment","Pay at Pump","Fleet Card"],"open24Hours":false,"hours":null,"openStatusRaw":"closed","nextStatusChange":"2026-02-01T06:00:00.108Z"},{"id":"shell-10128614","name":"Shell Wassa Akropong","brand":"shell","country_code":"GH","lat":5.767422,"lng":-2.102799,"address":"Wassa Akropong","city":"Wasa Akropong","state":"","postcode":"233","country":"Ghana","telephone":"+233 54 854 6563","fuels":["Unleaded 95","Diesel"],"amenities":["Air/Water","Self Service","Toilets","Full Service","Truck Parking","High Flow Diesel","Brand Loyalty","Parking","Lube Service"],"payments":["Credit Card","Mobile Payment","Pay at Pump","Fleet Card"],"open24Hours":false,"hours":null,"openStatusRaw":"closed","nextStatusChange":"2026-02-01T06:00:00.126Z"},{"id":"shell-10128736","name":"SHELL ELMINA","brand":"shell","country_code":"GH","lat":5.082822,"lng":-1.351717,"address":"Elmina","city":"Elmina","state":"","postcode":"233","country":"Ghana","telephone":"+233 24 228 2717","fuels":["Unleaded 95","Diesel","Kerosene"],"amenities":["Self Service","Toilets","Full Service","Truck Parking","High Flow Diesel","Brand Loyalty","Parking","Lube Service"],"payments":["Credit Card","Mobile Payment","Pay at Pump","Fleet Card"],"open24Hours":false,"hours":null,"openStatusRaw":"closed","nextStatusChange":"2026-02-01T06:00:00.188Z"},{"id":"shell-10128730","name":"SHELL ELMINA HIGHWAY","brand":"shell","country_code":"GH","lat":5.096561,"lng":-1.336985,"address":"Elmina","city":"Elmina","state":"","postcode":"233","country":"Ghana","telephone":"+233 24 228 2717","fuels":["Unleaded 98","Premium Diesel","Unleaded 95","Diesel"],"amenities":["Air/Water","Self Service","Toilets","Full Service","Truck Parking","High Flow Diesel","Brand Loyalty","Parking","Lube Service","Service Bay","Convenience Store"],"payments":["Credit Card","Mobile Payment","Pay at Pump","Fleet Card"],"open24Hours":false,"hours":null,"openStatusRaw":"closed","nextStatusChange":"2026-02-01T06:00:00.286Z"},{"id":"shell-10123793","name":"SHELL WASSA JAPA","brand":"shell","country_code":"GH","lat":5.851608,"lng":-2.013461,"address":"Wassa Japa","city":"Wassa Japa","state":"","postcode":"233","country":"Ghana","telephone":"0243721506/0242509664","fuels":["Unleaded 95","Diesel"],"amenities":["Toilets","Self Service","Full Service","Truck Parking","High Flow Diesel","Brand Loyalty","Parking","Lube Service"],"payments":["Credit Card","Mobile Payment","Pay at Pump","Fleet Card"],"open24Hours":false,"hours":null,"openStatusRaw":"closed","nextStatusChange":"2026-02-01T06:00:00.584Z"},{"id":"shell-10128651","name":"SHELL SARBAH ROAD","brand":"shell","country_code":"GH","lat":5.113678,"lng":-1.239922,"address":"Cape coast","city":"Cape coast","state":"","postcode":"233","country":"Ghana","telephone":"+233 20 812 3391","fuels":["Unleaded 95","Diesel"],"amenities":["Air/Water","Convenience Store","Self Service","Toilets","Full Service","Truck Parking","High Flow Diesel","Brand Loyalty","Parking","Lube Service","Service Bay","Tyres & Batteries"],"payments":["Credit Card","Mobile Payment","Pay at Pump","Fleet Card"],"open24Hours":false,"hours":null,"openStatusRaw":"closed","nextStatusChange":"2026-02-01T06:00:00.964Z"},{"id":"shell-10128623","name":"Shell Wasa Abreshia","brand":"shell","country_code":"GH","lat":5.880099,"lng":-1.978578,"address":"Aboaso Mampong","city":"Aboaso Mampong","state":"","postcode":"233","country":"Ghana","telephone":"+233 24 458 5678","fuels":["Unleaded 95","Diesel"],"amenities":["Air/Water","Self Service","Toilets","Full Service","Truck Parking","High Flow Diesel","Brand Loyalty","Parking","Lube Service"],"payments":["Credit Card","Mobile Payment","Pay at Pump","Fleet Card"],"open24Hours":false,"hours":null,"openStatusRaw":"closed","nextStatusChange":"2026-02-01T06:00:00.119Z"},{"id":"shell-10124036","name":"SHELL ABURA DUNKWA","brand":"shell","country_code":"GH","lat":5.35017,"lng":-1.16123,"address":"Abura Dunkwa tetsi","city":"Abura Dunkwa tetsi","state":"","postcode":"233","country":"Ghana","telephone":"+233 24 764 1603","fuels":["CNG","Unleaded 95","Diesel","LPG / Autogas"],"amenities":["Self Service","Toilets","Full Service","Truck Parking","High Flow Diesel","Brand Loyalty","Parking","Lube Service","Service Bay"],"payments":["Credit Card","Mobile Payment","Pay at Pump","Fleet Card"],"open24Hours":false,"hours":null,"openStatusRaw":"closed","nextStatusChange":"2026-02-01T06:00:00.153Z"},{"id":"shell-10128597","name":"SHELL MANKESSIM","brand":"shell","country_code":"GH","lat":5.268101,"lng":-1.01705,"address":"Mankessim ","city":"Mankessim","state":"","postcode":"233","country":"Ghana","telephone":"+233 20 812 3391","fuels":["Unleaded 95","Diesel"],"amenities":["Air/Water","Convenience Store","Fast Food","Food Store","Self Service","Toilets","Full Service","Truck Parking","High Flow Diesel","Brand Loyalty","Parking","Lube Service"],"payments":["Credit Card","Mobile Payment","Pay at Pump","Fleet Card"],"open24Hours":false,"hours":null,"openStatusRaw":"closed","nextStatusChange":"2026-02-01T06:00:00.207Z"},{"id":"shell-10123897","name":"SHELL BROFUYEDRU","brand":"shell","country_code":"GH","lat":6.020378,"lng":-1.946357,"address":"Dunkwa-Ayamfuri","city":"Dunkwa-Ayamfuri","state":"","postcode":"233","country":"Ghana","telephone":"+233 24 465 0678","fuels":["CNG","Unleaded 95","Diesel"],"amenities":["Car Wash","Self Service","Toilets","Full Service","Truck Parking","High Flow Diesel","Brand Loyalty","Parking","Lube Service","Service Bay","Convenience Store"],"payments":["Credit Card","Mobile Payment","Pay at Pump","Fleet Card"],"open24Hours":false,"hours":null,"openStatusRaw":"closed","nextStatusChange":"2026-02-01T06:00:00.230Z"},{"id":"shell-10123994","name":"SHELL ASSIN FOSU","brand":"shell","country_code":"GH","lat":5.711947,"lng":-1.286275,"address":"Cape Coast","city":"Cape Coast","state":"","postcode":"233","country":"Ghana","telephone":"+233 54 939 0745","fuels":["CNG","Premium Diesel","Unleaded 95","Diesel"],"amenities":["Self Service","Toilets","Full Service","Truck Parking","High Flow Diesel","Brand Loyalty","Parking","Lube Service","Tyres & Batteries"],"payments":["Credit Card","Mobile Payment","Pay at Pump","Fleet Card"],"open24Hours":false,"hours":null,"openStatusRaw":"closed","nextStatusChange":"2026-02-01T06:00:00.252Z"},{"id":"shell-10123880","name":"SHELL FINASO NKWANTA","brand":"shell","country_code":"GH","lat":6.082822,"lng":-1.781337,"address":"Obuasi","city":"Obuasi","state":"","postcode":"233","country":"Ghana","telephone":"+233 54 939 0745","fuels":["Unleaded 95","Diesel"],"amenities":["Self Service","Toilets","Full Service","Truck Parking","High Flow Diesel","Brand Loyalty","Parking","Lube Service","Service Bay","Convenience Store"],"payments":["Credit Card","Mobile Payment","Pay at Pump","Fleet Card"],"open24Hours":false,"hours":null,"openStatusRaw":"closed","nextStatusChange":"2026-02-01T06:00:00.307Z"},{"id":"shell-10123895","name":"SHELL SEHWI WIAWSO","brand":"shell","country_code":"GH","lat":6.218386,"lng":-2.482382,"address":"Sefwi Dwinase ","city":"Sefwi Dwinase","state":"","postcode":"233","country":"Ghana","telephone":"+233 26 617 6883","fuels":["CNG","Unleaded 95","Diesel"],"amenities":["Self Service","Toilets","Full Service","Truck Parking","High Flow Diesel","Brand Loyalty","Parking","Lube Service","Convenience Store"],"payments":["Credit Card","Mobile Payment","Pay at Pump","Fleet Card"],"open24Hours":false,"hours":null,"openStatusRaw":"closed","nextStatusChange":"2026-02-01T06:00:00.323Z"},{"id":"shell-10128734","name":"Shell Bibiani Asawinso","brand":"shell","country_code":"GH","lat":6.259335,"lng":-2.225252,"address":"Bibiani Asawinso","city":"Kumasi","state":"","postcode":"233","country":"Ghana","telephone":"+233 54 854 6563","fuels":["Unleaded 95","Diesel"],"amenities":["Air/Water","Disabled Access","Self Service","Toilets","Full Service","Truck Parking","High Flow Diesel","Brand Loyalty","Parking","Lube Service"],"payments":["Credit Card","Mobile Payment","Pay at Pump","Fleet Card"],"open24Hours":false,"hours":null,"openStatusRaw":"closed","nextStatusChange":"2026-02-01T06:00:00.340Z"},{"id":"shell-10123900","name":"SHELL OBUASI DUNKWA ROAD","brand":"shell","country_code":"GH","lat":6.200914,"lng":-1.694874,"address":"Obuasi,Nyameso","city":"Obuasi,Nyameso","state":"","postcode":"233","country":"Ghana","telephone":"+233 54 939 0745","fuels":["CNG","Unleaded 95","Diesel"],"amenities":["Self Service","Toilets","Full Service","Truck Parking","High Flow Diesel","Brand Loyalty","Parking","Lube Service","Service Bay","Convenience Store"],"payments":["Credit Card","Mobile Payment","Pay at Pump","Fleet Card"],"open24Hours":false,"hours":null,"openStatusRaw":"closed","nextStatusChange":"2026-02-01T06:00:00.379Z"},{"id":"shell-10128622","name":"SHELL OBUASI","brand":"shell","country_code":"GH","lat":6.204148,"lng":-1.677402,"address":"Cape Coast","city":"Cape Coast","state":"","postcode":"233","country":"Ghana","telephone":"+233 24 200 2133","fuels":["Premium Diesel","Unleaded 95","Diesel"],"amenities":["Air/Water","Convenience Store","Self Service","Toilets","Full Service","Truck Parking","High Flow Diesel","Brand Loyalty","Parking","Lube Service","Service Bay"],"payments":["Credit Card","Mobile Payment","Pay at Pump","Fleet Card"],"open24Hours":false,"hours":null,"openStatusRaw":"closed","nextStatusChange":"2026-02-01T06:00:00.417Z"},{"id":"shell-10128613","name":"Shell Obuasi Kyereware","brand":"shell","country_code":"GH","lat":6.233792,"lng":-1.67565,"address":"Kumasi, Obuasi ","city":"Kumasi, Obuasi","state":"","postcode":"233","country":"Ghana","telephone":"055538035","fuels":["Premium Diesel","Unleaded 95","Diesel"],"amenities":["Self Service","Toilets","Full Service","Truck Parking","High Flow Diesel","Brand Loyalty","Parking","Lube Service","Service Bay"],"payments":["Credit Card","Mobile Payment","Pay at Pump","Fleet Card"],"open24Hours":false,"hours":null,"openStatusRaw":"closed","nextStatusChange":"2026-02-01T06:00:00.516Z"},{"id":"shell-10128571","name":"SHELL SWEDRU ODA ROAD","brand":"shell","country_code":"GH","lat":5.533857,"lng":-0.701831,"address":"Agona Swedru-Texaco","city":"Agona Swedru-Texaco","state":"","postcode":"233","country":"Ghana","telephone":"+233 57 675 5391","fuels":["Unleaded 98","Unleaded 95","Diesel"],"amenities":["Air/Water","Convenience Store","ATM","Self Service","Toilets","Full Service","Truck Parking","High Flow Diesel","Brand Loyalty","Parking","Lube Service","Service Bay"],"payments":["Credit Card","Mobile Payment","Pay at Pump","Fleet Card"],"open24Hours":false,"hours":null,"openStatusRaw":"closed","nextStatusChange":"2026-02-01T06:00:00.832Z"},{"id":"shell-10128706","name":"SHELL AKIM ODA","brand":"shell","country_code":"GH","lat":5.921757,"lng":-0.989247,"address":"AKIM ODA ","city":"AKIM ODA","state":"","postcode":"233","country":"Ghana","telephone":"+233 20 202 3369","fuels":["Unleaded 95","Diesel"],"amenities":["Self Service","Toilets","Full Service","Truck Parking","High Flow Diesel","Brand Loyalty","Parking","Lube Service","Service Bay","Tyres & Batteries"],"payments":["Credit Card","Mobile Payment","Pay at Pump","Fleet Card"],"open24Hours":false,"hours":null,"openStatusRaw":"closed","nextStatusChange":"2026-02-01T06:00:00.906Z"},{"id":"shell-10128605","name":"SHELL ODA KADE","brand":"shell","country_code":"GH","lat":5.931193,"lng":-0.980219,"address":"Akim Oda, Nkwantanum","city":"Akim Oda, Nkwantanum","state":"","postcode":"233","country":"Ghana","telephone":"+233 20 202 3369","fuels":["Unleaded 95","Diesel"],"amenities":["Self Service","Toilets","Full Service","Truck Parking","High Flow Diesel","Brand Loyalty","Parking","Lube Service","Service Bay"],"payments":["Credit Card","Mobile Payment","Pay at Pump","Fleet Card"],"open24Hours":false,"hours":null,"openStatusRaw":"closed","nextStatusChange":"2026-02-01T06:00:00.925Z"},{"id":"shell-10123930","name":"SHELL KASOA ODUPONKPEHE","brand":"shell","country_code":"GH","lat":5.532312,"lng":-0.442503,"address":"Kasoa ","city":"Kasoa","state":"","postcode":"233","country":"Ghana","telephone":"+233 54 750 8661","fuels":["Unleaded 95","Diesel"],"amenities":["ATM","Self Service","Toilets","Full Service","Truck Parking","High Flow Diesel","Brand Loyalty","Parking","Lube Service","Service Bay","Convenience Store"],"payments":["Credit Card","Mobile Payment","Pay at Pump","Fleet Card"],"open24Hours":false,"hours":null,"openStatusRaw":"closed","nextStatusChange":"2026-02-01T06:00:00.020Z"},{"id":"shell-10128720","name":"SHELL ADANSI ASOKWA","brand":"shell","country_code":"GH","lat":6.241787,"lng":-1.501556,"address":"Kumasi","city":"Kumasi","state":"","postcode":"233","country":"Ghana","telephone":"+233 54 010 8722","fuels":["Premium Diesel","Unleaded 95","Diesel"],"amenities":["Air/Water","Self Service","Toilets","Full Service","Truck Parking","High Flow Diesel","Brand Loyalty","Parking","Lube Service","Service Bay","Convenience Store","Tyres & Batteries"],"payments":["Credit Card","Mobile Payment","Pay at Pump","Fleet Card"],"open24Hours":false,"hours":null,"openStatusRaw":"closed","nextStatusChange":"2026-02-01T06:00:00.039Z"},{"id":"shell-10128663","name":"SHELL KASOA AMANFROM","brand":"shell","country_code":"GH","lat":5.536151,"lng":-0.41208,"address":"Kasoa","city":"Kasoa","state":"","postcode":"233","country":"Ghana","telephone":"+233 20 811 6470","fuels":["Unleaded 98","Unleaded 95","Diesel"],"amenities":["Air/Water","Convenience Store","Self Service","Toilets","Full Service","Truck Parking","High Flow Diesel","Brand Loyalty","Parking","Lube Service","Service Bay"],"payments":["Credit Card","Mobile Payment","Pay at Pump","Fleet Card"],"open24Hours":false,"hours":null,"openStatusRaw":"closed","nextStatusChange":"2026-02-01T06:00:00.076Z"},{"id":"shell-10123997","name":"SHELL KASOA NEW MARKET","brand":"shell","country_code":"GH","lat":5.554774,"lng":-0.419625,"address":"Kasoa","city":"Kasoa","state":"","postcode":"233","country":"Ghana","telephone":"+233 24 440 2022","fuels":["CNG","Unleaded 95","Diesel"],"amenities":["Self Service","Toilets","Full Service","Truck Parking","High Flow Diesel","Brand Loyalty","Parking","Lube Service"],"payments":["Credit Card","Mobile Payment","Pay at Pump","Fleet Card"],"open24Hours":false,"hours":null,"openStatusRaw":"closed","nextStatusChange":"2026-02-01T06:00:00.095Z"},{"id":"shell-10128654","name":"SHELL KASOA TOLLBOOTH","brand":"shell","country_code":"GH","lat":5.545643,"lng":-0.386118,"address":"Kasoa","city":"Kasoa","state":"","postcode":"233","country":"Ghana","telephone":"+233 26 228 5556","fuels":["Unleaded 95","Diesel"],"amenities":["Air/Water","Convenience Store","Self Service","Toilets","Full Service","Truck Parking","High Flow Diesel","Brand Loyalty","Parking","Lube Service","Service Bay"],"payments":["Credit Card","Mobile Payment","Pay at Pump","Fleet Card"],"open24Hours":false,"hours":null,"openStatusRaw":"closed","nextStatusChange":"2026-02-01T06:00:00.131Z"},{"id":"shell-10123780","name":"SHELL WEST HILLS","brand":"shell","country_code":"GH","lat":5.545823,"lng":-0.342011,"address":"Accra","city":"Accra","state":"","postcode":"233","country":"Ghana","telephone":"+233 24 322 2900","fuels":["CNG","Unleaded 98","Unleaded 95","Diesel"],"amenities":["Fast Food","Food Store","Self Service","Toilets","Full Service","Truck Parking","High Flow Diesel","Brand Loyalty","Parking","Lube Service","Service Bay"],"payments":["Credit Card","Mobile Payment","Pay at Pump","Fleet Card"],"open24Hours":false,"hours":null,"openStatusRaw":"closed","nextStatusChange":"2026-02-01T06:00:00.168Z"},{"id":"shell-10124023","name":"SHELL ADEISO","brand":"shell","country_code":"GH","lat":5.793179,"lng":-0.489559,"address":"Adeiso, junction ","city":"Adeiso, junction","state":"","postcode":"233","country":"Ghana","telephone":"+233 20 838 9807","fuels":["Premium Diesel","Unleaded 95","Diesel"],"amenities":["Self Service","Toilets","Full Service","Truck Parking","High Flow Diesel","Brand Loyalty","Parking","Lube Service","Service Bay"],"payments":["Credit Card","Mobile Payment","Pay at Pump","Fleet Card"],"open24Hours":false,"hours":null,"openStatusRaw":"closed","nextStatusChange":"2026-02-01T06:00:00.187Z"},{"id":"shell-10123943","name":"SHELL ASHALAJA","brand":"shell","country_code":"GH","lat":5.667267,"lng":-0.358633,"address":"Ashalaja","city":"Ashalaja","state":"","postcode":"233","country":"Ghana","telephone":"+233 24 498 8110","fuels":["Premium Diesel","Unleaded 95","Diesel"],"amenities":["Disabled Access","Self Service","Toilets","Full Service","Truck Parking","High Flow Diesel","Brand Loyalty","Parking","Lube Service","Service Bay"],"payments":["Credit Card","Mobile Payment","Pay at Pump","Fleet Card"],"open24Hours":false,"hours":null,"openStatusRaw":"closed","nextStatusChange":"2026-02-01T06:00:00.212Z"},{"id":"shell-10128647","name":"SHELL MALLAM-GBAWE ROAD","brand":"shell","country_code":"GH","lat":5.576635,"lng":-0.292289,"address":"Accra","city":"Accra","state":"","postcode":"233","country":"Ghana","telephone":"+233 24 431 0067","fuels":["Unleaded 95","Diesel"],"amenities":["Convenience Store","Self Service","Toilets","Full Service","Truck Parking","High Flow Diesel","Brand Loyalty","Parking","Lube Service","Service Bay","Tyres & Batteries"],"payments":["Credit Card","Mobile Payment","Pay at Pump","Fleet Card"],"open24Hours":false,"hours":null,"openStatusRaw":"closed","nextStatusChange":"2026-02-01T06:00:00.233Z"},{"id":"shell-10123968","name":"SHELL ELUBO ROAD","brand":"shell","country_code":"GH","lat":5.549331,"lng":-0.272886,"address":"ELUBO ","city":"ELUBO","state":"","postcode":"233","country":"Ghana","telephone":"+233 26 971 7008","fuels":["Premium Diesel","Unleaded 95","Diesel"],"amenities":["Toilets","Self Service","Full Service","Truck Parking","High Flow Diesel","Brand Loyalty","Parking","Lube Service","Service Bay","WiFi"],"payments":["Credit Card","Mobile Payment","Pay at Pump","Fleet Card"],"open24Hours":false,"hours":null,"openStatusRaw":"closed","nextStatusChange":"2026-02-01T06:00:00.254Z"},{"id":"shell-10128627","name":"SHELL TAKORADI BOKRO","brand":"shell","country_code":"GH","lat":5.557023,"lng":-0.276973,"address":"Agona Nkwanta Elubo Road","city":"Agona Nkwanta Elubo Road","state":"","postcode":"233","country":"Ghana","telephone":"+233 26 971 7008","fuels":["Unleaded 98","Unleaded 95","Diesel"],"amenities":["Air/Water","Self Service","Toilets","Full Service","Truck Parking","High Flow Diesel","Brand Loyalty","Parking","Lube Service","Service Bay","Convenience Store","Tyres & Batteries"],"payments":["Credit Card","Mobile Payment","Pay at Pump","Fleet Card"],"open24Hours":false,"hours":null,"openStatusRaw":"closed","nextStatusChange":"2026-02-01T06:00:00.683Z"},{"id":"shell-10128738","name":"SHELL DANSOMAN","brand":"shell","country_code":"GH","lat":5.545058,"lng":-0.264576,"address":"Accra","city":"Accra","state":"","postcode":"233","country":"Ghana","telephone":"+233 24 434 4346","fuels":["Unleaded 98","Unleaded 95","Diesel"],"amenities":["Air/Water","Convenience Store","ATM","Service Bay","Fast Food","Food Store","Self Service","Toilets","Full Service","Truck Parking","High Flow Diesel","Brand Loyalty","Parking","Lube Service"],"payments":["Credit Card","Mobile Payment","Pay at Pump","Fleet Card"],"open24Hours":false,"hours":null,"openStatusRaw":"closed","nextStatusChange":"2026-02-01T06:00:00.720Z"},{"id":"shell-10128595","name":"SHELL ODORKOR WEST","brand":"shell","country_code":"GH","lat":5.575645,"lng":-0.276569,"address":"Kasoa","city":"Kasoa","state":"","postcode":"233","country":"Ghana","telephone":"+233 59 699 5318","fuels":["Unleaded 98","Unleaded 95","Diesel"],"amenities":["Air/Water","Convenience Store","Self Service","Toilets","Full Service","Truck Parking","High Flow Diesel","Brand Loyalty","Parking","Lube Service","Service Bay","Other"],"payments":["Credit Card","Mobile Payment","Pay at Pump","Fleet Card"],"open24Hours":false,"hours":null,"openStatusRaw":"closed","nextStatusChange":"2026-02-01T06:00:00.738Z"},{"id":"shell-10128621","name":"SHELL MAMPROBI","brand":"shell","country_code":"GH","lat":5.533542,"lng":-0.237896,"address":"Accra Mamprobi","city":"Accra Mamprobi","state":"","postcode":"233","country":"Ghana","telephone":"+233 24 088 9384","fuels":["Unleaded 98","Unleaded 95","Diesel"],"amenities":["Air/Water","Convenience Store","Self Service","Toilets","Full Service","Truck Parking","High Flow Diesel","Brand Loyalty","Parking","Lube Service","Service Bay","Other"],"payments":["Credit Card","Mobile Payment","Pay at Pump","Fleet Card"],"open24Hours":false,"hours":null,"openStatusRaw":"closed","nextStatusChange":"2026-02-01T06:00:00.756Z"},{"id":"shell-10128703","name":"SHELL ABLEKUMA","brand":"shell","country_code":"GH","lat":5.627502,"lng":-0.313804,"address":"Ablekuma Curve","city":"Ablekuma Curve","state":"","postcode":"233","country":"Ghana","telephone":"+233 24 425 7542","fuels":["Unleaded 95","Diesel"],"amenities":["Self Service","Toilets","Full Service","Truck Parking","High Flow Diesel","Brand Loyalty","Parking","Lube Service","Service Bay"],"payments":["Credit Card","Mobile Payment","Pay at Pump","Fleet Card"],"open24Hours":false,"hours":null,"openStatusRaw":"closed","nextStatusChange":"2026-02-01T06:00:00.793Z"},{"id":"shell-10128567","name":"SHELL LARTEBIOKORSHIE","brand":"shell","country_code":"GH","lat":5.550591,"lng":-0.239962,"address":"Accra","city":"Accra","state":"","postcode":"233","country":"Ghana","telephone":"+233 54 750 8661","fuels":["Unleaded 95","Diesel"],"amenities":["Self Service","Toilets","Full Service","Truck Parking","High Flow Diesel","Brand Loyalty","Parking","Lube Service","Service Bay","Tyres & Batteries"],"payments":["Credit Card","Mobile Payment","Pay at Pump","Fleet Card"],"open24Hours":false,"hours":null,"openStatusRaw":"closed","nextStatusChange":"2026-02-01T06:00:00.811Z"},{"id":"shell-10128701","name":"SHELL HANSONIC- MATAHEKO","brand":"shell","country_code":"GH","lat":5.571012,"lng":-0.25429,"address":"Accra","city":"Accra","state":"","postcode":"233","country":"Ghana","telephone":"+233 24 440 6710","fuels":["Unleaded 98","Unleaded 95","Diesel"],"amenities":["Convenience Store","Service Bay","Self Service","Toilets","Full Service","Truck Parking","High Flow Diesel","Brand Loyalty","Parking","Lube Service"],"payments":["Credit Card","Mobile Payment","Pay at Pump","Fleet Card"],"open24Hours":false,"hours":null,"openStatusRaw":"closed","nextStatusChange":"2026-02-01T06:00:00.847Z"},{"id":"shell-10128694","name":"SHELL HORSE ROAD","brand":"shell","country_code":"GH","lat":5.541279,"lng":-0.213372,"address":"Akoto Lantey","city":"Akoto Lantey","state":"","postcode":"233","country":"Ghana","telephone":"+233 24 322 2900","fuels":["Unleaded 95","Diesel"],"amenities":["Air/Water","Convenience Store","Self Service","Toilets","Full Service","Truck Parking","High Flow Diesel","Brand Loyalty","Parking","Lube Service","Service Bay","Other","Tyres & Batteries"],"payments":["Credit Card","Mobile Payment","Pay at Pump","Fleet Card"],"open24Hours":false,"hours":null,"openStatusRaw":"closed","nextStatusChange":"2026-02-01T06:00:00.865Z"},{"id":"shell-10128603","name":"SHELL WEIJA ROAD NORTH","brand":"shell","country_code":"GH","lat":5.562196,"lng":-0.23035,"address":"Accra","city":"Accra","state":"","postcode":"233","country":"Ghana","telephone":"+233 24 440 6710","fuels":["Unleaded 95","Diesel"],"amenities":["Air/Water","Self Service","Toilets","Full Service","Truck Parking","High Flow Diesel","Brand Loyalty","Parking","Lube Service","Service Bay","Convenience Store"],"payments":["Credit Card","Mobile Payment","Pay at Pump","Fleet Card"],"open24Hours":false,"hours":null,"openStatusRaw":"closed","nextStatusChange":"2026-02-01T06:00:00.882Z"},{"id":"shell-10128573","name":"SHELL MCCARTHY HILL","brand":"shell","country_code":"GH","lat":5.623499,"lng":-0.279982,"address":"Accra","city":"Accra","state":"","postcode":"233","country":"Ghana","telephone":"+233 54 750 8661","fuels":["Unleaded 95","Diesel"],"amenities":["Air/Water","Self Service","Toilets","Full Service","Truck Parking","High Flow Diesel","Brand Loyalty","Parking","Lube Service","Service Bay","Convenience Store"],"payments":["Credit Card","Mobile Payment","Pay at Pump","Fleet Card"],"open24Hours":false,"hours":null,"openStatusRaw":"closed","nextStatusChange":"2026-02-01T06:00:00.899Z"},{"id":"shell-10123831","name":"SHELL TABORA RACE COURSE","brand":"shell","country_code":"GH","lat":5.59638,"lng":-0.254695,"address":"Tabora Racecourse ","city":"Tabora Racecourse","state":"","postcode":"233","country":"Ghana","telephone":"+233 54 750 8661","fuels":["CNG","Unleaded 95","Diesel"],"amenities":["Self Service","Toilets","Full Service","Truck Parking","High Flow Diesel","Brand Loyalty","Parking","Lube Service","Service Bay","Convenience Store"],"payments":["Credit Card","Mobile Payment","Pay at Pump","Fleet Card"],"open24Hours":false,"hours":null,"openStatusRaw":"closed","nextStatusChange":"2026-02-01T06:00:00.948Z"},{"id":"shell-10128617","name":"SHELL STADIUM","brand":"shell","country_code":"GH","lat":5.551715,"lng":-0.19033,"address":"Accra","city":"Accra","state":"","postcode":"233","country":"Ghana","telephone":"+233 24 414 5041","fuels":["Unleaded 98","Unleaded 95","Diesel"],"amenities":["Convenience Store","Fast Food","Food Store","Self Service","Toilets","Full Service","Truck Parking","High Flow Diesel","Brand Loyalty","Parking","Lube Service","Service Bay"],"payments":["Credit Card","Mobile Payment","Pay at Pump","Fleet Card"],"open24Hours":false,"hours":null,"openStatusRaw":"closed","nextStatusChange":"2026-02-01T06:00:00.995Z"},{"id":"shell-10128689","name":"SHELL CASTLE ROAD","brand":"shell","country_code":"GH","lat":5.563141,"lng":-0.203221,"address":"Accra","city":"Accra","state":"","postcode":"233","country":"Ghana","telephone":"+233 24 469 1638","fuels":["Unleaded 98","Unleaded 95","Diesel"],"amenities":["Air/Water","Convenience Store","ATM","Fast Food","Disabled Access","Self Service","Toilets","Full Service","Truck Parking","High Flow Diesel","Brand Loyalty","Parking","Lube Service","Service Bay","Other"],"payments":["Credit Card","Mobile Payment","Pay at Pump","Fleet Card"],"open24Hours":false,"hours":null,"openStatusRaw":"closed","nextStatusChange":"2026-02-01T06:00:00.027Z"},{"id":"shell-10128631","name":"SHELL SOWUTUOM","brand":"shell","country_code":"GH","lat":5.623724,"lng":-0.279982,"address":"Accra ","city":"Accra","state":"","postcode":"233","country":"Ghana","telephone":"+233 54 750 8661","fuels":["Unleaded 95","Diesel"],"amenities":["Air/Water","Self Service","Toilets","Full Service","Truck Parking","High Flow Diesel","Brand Loyalty","Parking","Lube Service","Service Bay","Convenience Store"],"payments":["Credit Card","Mobile Payment","Pay at Pump","Fleet Card"],"open24Hours":false,"hours":null,"openStatusRaw":"closed","nextStatusChange":"2026-02-01T06:00:00.074Z"},{"id":"shell-10128681","name":"SHELL AVENOR","brand":"shell","country_code":"GH","lat":5.581043,"lng":-0.216471,"address":"Accra","city":"Accra","state":"","postcode":"233","country":"Ghana","telephone":"+233 20 208 8884","fuels":["Unleaded 95","Diesel"],"amenities":["Air/Water","Convenience Store","ATM","Car Wash","Self Service","Toilets","Full Service","Truck Parking","High Flow Diesel","Brand Loyalty","Hand Wash","Parking","Lube Service","Service Bay","Tyres & Batteries"],"payments":["Credit Card","Mobile Payment","Pay at Pump","Fleet Card"],"open24Hours":false,"hours":null,"openStatusRaw":"closed","nextStatusChange":"2026-02-01T06:00:00.098Z"},{"id":"shell-10123822","name":"SHELL TABORA - ASOREDANHO","brand":"shell","country_code":"GH","lat":5.621296,"lng":-0.262914,"address":"Alhaji - Tabora Junction ","city":"Alhaji - Tabora Junction","state":"","postcode":"233","country":"Ghana","telephone":"+233 24 238 5713","fuels":["CNG","Unleaded 95","Diesel"],"amenities":["Toilets","Service Bay","Self Service","Full Service","Truck Parking","High Flow Diesel","Brand Loyalty","Parking","Lube Service"],"payments":["Credit Card","Mobile Payment","Pay at Pump","Fleet Card"],"open24Hours":false,"hours":null,"openStatusRaw":"closed","nextStatusChange":"2026-02-01T06:00:00.121Z"},{"id":"shell-10128702","name":"SHELL CANTONMENTS","brand":"shell","country_code":"GH","lat":5.558463,"lng":-0.182515,"address":"Accra","city":"Accra","state":"","postcode":"233","country":"Ghana","telephone":"+233 50 424 5888","fuels":["Unleaded 98","Unleaded 95","Diesel"],"amenities":["Air/Water","Convenience Store","Fast Food","Car Wash","Service Bay","Food Store","Self Service","Toilets","Full Service","Truck Parking","High Flow Diesel","Brand Loyalty","Hand Wash","Parking","Lube Service","Other","Tyres & Batteries"],"payments":["Credit Card","Mobile Payment","Pay at Pump","Fleet Card"],"open24Hours":false,"hours":null,"openStatusRaw":"closed","nextStatusChange":"2026-02-01T06:00:00.173Z"},{"id":"shell-10128596","name":"SHELL OSU REGAL","brand":"shell","country_code":"GH","lat":5.553335,"lng":-0.175059,"address":"Accra, Osu","city":"Accra, Osu","state":"","postcode":"233","country":"Ghana","telephone":"+233 20 811 0909","fuels":["Unleaded 95","Diesel"],"amenities":["Air/Water","Convenience Store","Car Wash","Self Service","Toilets","Full Service","Truck Parking","High Flow Diesel","Brand Loyalty","Hand Wash","Parking","Lube Service","Service Bay"],"payments":["Credit Card","Mobile Payment","Pay at Pump","Fleet Card"],"open24Hours":false,"hours":null,"openStatusRaw":"closed","nextStatusChange":"2026-02-01T06:00:00.200Z"},{"id":"shell-10128609","name":"SHELL NIMA","brand":"shell","country_code":"GH","lat":5.578974,"lng":-0.199583,"address":"NIMA","city":"NIMA","state":"","postcode":"233","country":"Ghana","telephone":"+233 24 434 4346","fuels":["Unleaded 95","Diesel"],"amenities":["Air/Water","Convenience Store","Self Service","Toilets","Full Service","Truck Parking","High Flow Diesel","Brand Loyalty","Parking","Lube Service"],"payments":["Credit Card","Mobile Payment","Pay at Pump","Fleet Card"],"open24Hours":false,"hours":null,"openStatusRaw":"closed","nextStatusChange":"2026-02-01T06:00:00.222Z"},{"id":"shell-10128570","name":"SHELL TESANO","brand":"shell","country_code":"GH","lat":5.600608,"lng":-0.22523,"address":"Tesano","city":"Tesano","state":"","postcode":"233","country":"Ghana","telephone":"+233 20 934 0828","fuels":["Unleaded 98","Unleaded 95","Diesel"],"amenities":["Air/Water","Convenience Store","Car Wash","Disabled Access","Fast Food","Food Store","Self Service","Toilets","Full Service","Truck Parking","High Flow Diesel","Brand Loyalty","Hand Wash","Parking","Lube Service","Service Bay","Tyres & Batteries"],"payments":["Credit Card","Mobile Payment","Pay at Pump","Fleet Card"],"open24Hours":false,"hours":null,"openStatusRaw":"closed","nextStatusChange":"2026-02-01T06:00:00.080Z"},{"id":"shell-10128598","name":"SHELL LA BEACH","brand":"shell","country_code":"GH","lat":5.56413,"lng":-0.142091,"address":"Accra","city":"Accra","state":"","postcode":"233","country":"Ghana","telephone":"+233 24 699 6599","fuels":["Unleaded 98","Unleaded 95","Diesel"],"amenities":["Air/Water","Convenience Store","ATM","Car Wash","Service Bay","Self Service","Toilets","Full Service","Truck Parking","High Flow Diesel","Brand Loyalty","Hand Wash","Parking","Lube Service","Other","Tyres & Batteries"],"payments":["Credit Card","Mobile Payment","Pay at Pump","Fleet Card"],"open24Hours":false,"hours":null,"openStatusRaw":"closed","nextStatusChange":"2026-02-01T06:00:00.140Z"},{"id":"shell-10128587","name":"SHELL PALMWINE JUNCTION","brand":"shell","country_code":"GH","lat":5.576185,"lng":-0.152916,"address":"Palmwine Junction ","city":"Palmwine Junction","state":"","postcode":"233","country":"Ghana","telephone":"+233 24 344 1913","fuels":["Unleaded 98","Unleaded 95","Diesel"],"amenities":["Air/Water","Service Bay","Self Service","Toilets","Full Service","Truck Parking","High Flow Diesel","Brand Loyalty","Parking","Lube Service","Convenience Store"],"payments":["Credit Card","Mobile Payment","Pay at Pump","Fleet Card"],"open24Hours":false,"hours":null,"openStatusRaw":"closed","nextStatusChange":"2026-02-01T06:00:00.178Z"},{"id":"shell-10128667","name":"SHELL LIBERATION ROAD","brand":"shell","country_code":"GH","lat":5.594356,"lng":-0.180539,"address":"Accra","city":"Accra","state":"","postcode":"233","country":"Ghana","telephone":"+233 24 412 1241","fuels":["Unleaded 98","Unleaded 95","Diesel"],"amenities":["Air/Water","Convenience Store","Car Wash","Service Bay","Self Service","Toilets","Full Service","Truck Parking","High Flow Diesel","Brand Loyalty","Hand Wash","Parking","Lube Service","Tyres & Batteries"],"payments":["Credit Card","Mobile Payment","Pay at Pump","Fleet Card"],"open24Hours":false,"hours":null,"openStatusRaw":"closed","nextStatusChange":"2026-02-01T06:00:00.198Z"},{"id":"shell-10128722","name":"SHELL ACHIMOTA-KUMASI ROAD","brand":"shell","country_code":"GH","lat":5.618552,"lng":-0.229632,"address":"Achimota Old Station","city":"Achimota Old Station","state":"","postcode":"233","country":"Ghana","telephone":"+233 24 344 1913","fuels":["Unleaded 98","Premium Diesel","Unleaded 95","Diesel"],"amenities":["Air/Water","Self Service","Toilets","Full Service","Truck Parking","High Flow Diesel","Brand Loyalty","Parking","Lube Service","Convenience Store","Service Bay"],"payments":["Credit Card","Mobile Payment","Pay at Pump","Fleet Card"],"open24Hours":false,"hours":null,"openStatusRaw":"closed","nextStatusChange":"2026-02-01T06:00:00.217Z"},{"id":"shell-10123961","name":"SHELL ALLIANCE AIRPORT","brand":"shell","country_code":"GH","lat":5.613155,"lng":-0.216247,"address":"OPEBIA ","city":"OPEBIA","state":"","postcode":"233","country":"Ghana","telephone":"+233 54 431 0828","fuels":["Unleaded 98","Unleaded 95","Diesel"],"amenities":["Convenience Store","Car Wash","Disabled Access","Fast Food","Food Store","Self Service","Toilets","Full Service","Truck Parking","High Flow Diesel","Brand Loyalty","Parking","Lube Service","Service Bay"],"payments":["Credit Card","Mobile Payment","Pay at Pump","Fleet Card"],"open24Hours":false,"hours":null,"openStatusRaw":"closed","nextStatusChange":"2026-02-01T06:00:00.236Z"},{"id":"shell-10128723","name":"SHELL ACHIMOTA","brand":"shell","country_code":"GH","lat":5.620351,"lng":-0.226937,"address":"Achimota","city":"Achimota","state":"","postcode":"233","country":"Ghana","telephone":"+233 24 344 1913","fuels":["Unleaded 98","Unleaded 95","Diesel"],"amenities":["Self Service","Toilets","Full Service","Truck Parking","High Flow Diesel","Brand Loyalty","Parking","Lube Service","Service Bay","Convenience Store"],"payments":["Credit Card","Mobile Payment","Pay at Pump","Fleet Card"],"open24Hours":false,"hours":null,"openStatusRaw":"closed","nextStatusChange":"2026-02-01T06:00:00.255Z"},{"id":"shell-10128640","name":"SHELL TESHIE NUNGUA","brand":"shell","country_code":"GH","lat":5.589498,"lng":-0.096232,"address":"Accra","city":"Accra","state":"","postcode":"233","country":"Ghana","telephone":"+233 24 469 5989","fuels":["Unleaded 95","Diesel"],"amenities":["Air/Water","Convenience Store","Self Service","Toilets","Full Service","Truck Parking","High Flow Diesel","Brand Loyalty","Parking","Lube Service","Service Bay","Tyres & Batteries"],"payments":["Credit Card","Mobile Payment","Pay at Pump","Fleet Card"],"open24Hours":false,"hours":null,"openStatusRaw":"closed","nextStatusChange":"2026-02-01T06:00:00.822Z"},{"id":"shell-10128737","name":"SHELL AIRPORT CITY","brand":"shell","country_code":"GH","lat":5.604161,"lng":-0.175239,"address":"Accra","city":"Accra","state":"","postcode":"233","country":"Ghana","telephone":"+233 27 661 3892","fuels":["Unleaded 98","Unleaded 95","Diesel"],"amenities":["Air/Water","Convenience Store","ATM","Cafe","Service Bay","Disabled Access","Fast Food","Food Store","Self Service","Toilets","Full Service","Truck Parking","High Flow Diesel","Brand Loyalty","Parking","Lube Service","Other","Tyres & Batteries"],"payments":["Credit Card","Mobile Payment","Pay at Pump","Fleet Card"],"open24Hours":false,"hours":null,"openStatusRaw":"closed","nextStatusChange":"2026-02-01T06:00:00.864Z"},{"id":"shell-10128673","name":"SHELL COASTAL ROAD","brand":"shell","country_code":"GH","lat":5.598719,"lng":-0.079927,"address":"Accra","city":"Accra","state":"","postcode":"233","country":"Ghana","telephone":"+233 24 192 7637","fuels":["Unleaded 95","Diesel"],"amenities":["Air/Water","Convenience Store","Self Service","Toilets","Full Service","Truck Parking","High Flow Diesel","Brand Loyalty","Parking","Lube Service","Service Bay"],"payments":["Credit Card","Mobile Payment","Pay at Pump","Fleet Card"],"open24Hours":false,"hours":null,"openStatusRaw":"closed","nextStatusChange":"2026-02-01T06:00:00.921Z"},{"id":"shell-10128649","name":"SHELL TESHIE LASTSTOP","brand":"shell","country_code":"GH","lat":5.609198,"lng":-0.10773,"address":"Teshie","city":"Teshie","state":"","postcode":"233","country":"Ghana","telephone":"+233 23 356 8501","fuels":["Unleaded 95","Diesel"],"amenities":["Self Service","Toilets","Full Service","Truck Parking","High Flow Diesel","Brand Loyalty","Parking","Lube Service","Service Bay"],"payments":["Credit Card","Mobile Payment","Pay at Pump","Fleet Card"],"open24Hours":false,"hours":null,"openStatusRaw":"closed","nextStatusChange":"2026-02-01T06:00:00.045Z"},{"id":"shell-10128648","name":"SHELL MOTORWAY EXTENSION","brand":"shell","country_code":"GH","lat":5.621206,"lng":-0.184491,"address":"Dzorwulu ","city":"Dzorwulu","state":"","postcode":"233","country":"Ghana","telephone":"+233 55 496 3055","fuels":["Unleaded 98","Unleaded 95","Diesel"],"amenities":["Air/Water","Convenience Store","Service Bay","Fast Food","Food Store","Self Service","Toilets","Full Service","Truck Parking","High Flow Diesel","Brand Loyalty","Parking","Lube Service","Other","Tyres & Batteries"],"payments":["Credit Card","Mobile Payment","Pay at Pump","Fleet Card"],"open24Hours":false,"hours":null,"openStatusRaw":"closed","nextStatusChange":"2026-02-01T06:00:00.063Z"},{"id":"shell-10128677","name":"SHELL LEGON ROAD","brand":"shell","country_code":"GH","lat":5.632494,"lng":-0.177305,"address":"Accra","city":"Accra","state":"","postcode":"233","country":"Ghana","telephone":"+233 20 039 6060","fuels":["Unleaded 98","Unleaded 95","Diesel"],"amenities":["Air/Water","Convenience Store","Car Wash","Self Service","Toilets","Full Service","Truck Parking","High Flow Diesel","Brand Loyalty","Hand Wash","Parking","Lube Service","Service Bay"],"payments":["Credit Card","Mobile Payment","Pay at Pump","Fleet Card"],"open24Hours":false,"hours":null,"openStatusRaw":"closed","nextStatusChange":"2026-02-01T06:00:00.098Z"},{"id":"shell-10128739","name":"SHELL BAATSONAA","brand":"shell","country_code":"GH","lat":5.62161,"lng":-0.090887,"address":"ACCRA","city":"ACCRA","state":"","postcode":"233","country":"Ghana","telephone":"+233 24 192 7637","fuels":["Premium Diesel","Unleaded 95","Diesel"],"amenities":["Air/Water","Convenience Store","Self Service","Toilets","Full Service","Truck Parking","High Flow Diesel","Brand Loyalty","Parking","Lube Service","Service Bay","Tyres & Batteries"],"payments":["Credit Card","Mobile Payment","Pay at Pump","Fleet Card"],"open24Hours":false,"hours":null,"openStatusRaw":"closed","nextStatusChange":"2026-02-01T06:00:00.116Z"},{"id":"shell-10123922","name":"SHELL MARINE DRIVE","brand":"shell","country_code":"GH","lat":5.616349,"lng":-0.062096,"address":"Tema beach road","city":"Tema beach road","state":"","postcode":"233","country":"Ghana","telephone":"+233 54 821 9183","fuels":["Unleaded 95","Diesel"],"amenities":["Convenience Store","Self Service","Toilets","Full Service","Truck Parking","High Flow Diesel","Brand Loyalty","Parking","Lube Service","Service Bay","Other"],"payments":["Credit Card","Mobile Payment","Pay at Pump","Fleet Card"],"open24Hours":false,"hours":null,"openStatusRaw":"closed","nextStatusChange":"2026-02-01T06:00:00.134Z"},{"id":"shell-10128607","name":"SHELL MANET","brand":"shell","country_code":"GH","lat":5.635681,"lng":-0.125333,"address":"Spintex","city":"Spintex","state":"","postcode":"233","country":"Ghana","telephone":"","fuels":["Unleaded 98","Unleaded 95","Diesel"],"amenities":["Air/Water","Convenience Store","Fast Food","Food Store","Self Service","Toilets","Full Service","Truck Parking","High Flow Diesel","Brand Loyalty","Parking","Lube Service","Service Bay"],"payments":["Credit Card","Mobile Payment","Pay at Pump","Fleet Card"],"open24Hours":false,"hours":null,"openStatusRaw":"closed","nextStatusChange":"2026-02-01T06:00:00.152Z"},{"id":"shell-10128717","name":"SHELL DOME-CROSSING","brand":"shell","country_code":"GH","lat":5.648323,"lng":-0.23601,"address":"Accra ","city":"Accra","state":"","postcode":"233","country":"Ghana","telephone":"+233 24 904 8577","fuels":["Unleaded 95","Diesel"],"amenities":["Self Service","Toilets","Full Service","Truck Parking","High Flow Diesel","Brand Loyalty","Parking","Lube Service"],"payments":["Credit Card","Mobile Payment","Pay at Pump","Fleet Card"],"open24Hours":false,"hours":null,"openStatusRaw":"closed","nextStatusChange":"2026-02-01T06:00:00.172Z"},{"id":"shell-10128671","name":"SHELL KISSEMAN-DOME ROAD","brand":"shell","country_code":"GH","lat":5.649132,"lng":-0.238211,"address":"Accra","city":"Accra","state":"","postcode":"233","country":"Ghana","telephone":"+233 24 499 7627","fuels":["Unleaded 98","Unleaded 95","Diesel"],"amenities":["Air/Water","Service Bay","Self Service","Toilets","Full Service","Truck Parking","High Flow Diesel","Convenience Store","Brand Loyalty","Parking","Lube Service"],"payments":["Credit Card","Mobile Payment","Pay at Pump","Fleet Card"],"open24Hours":false,"hours":null,"openStatusRaw":"closed","nextStatusChange":"2026-02-01T06:00:00.190Z"},{"id":"shell-10128636","name":"SHELL TAIFA JUNCTION","brand":"shell","country_code":"GH","lat":5.650032,"lng":-0.251146,"address":"Taifa junction ","city":"Taifa junction","state":"","postcode":"233","country":"Ghana","telephone":"+233 54 750 8661","fuels":["Premium Diesel","Unleaded 95","Diesel"],"amenities":["Air/Water","Self Service","Toilets","Full Service","Truck Parking","High Flow Diesel","Brand Loyalty","Parking","Lube Service","Service Bay","Convenience Store"],"payments":["Credit Card","Mobile Payment","Pay at Pump","Fleet Card"],"open24Hours":false,"hours":null,"openStatusRaw":"closed","nextStatusChange":"2026-02-01T06:00:00.207Z"},{"id":"shell-10128691","name":"SHELL EAST LEGON A&C JUNCTION","brand":"shell","country_code":"GH","lat":5.643196,"lng":-0.147166,"address":"Accra ","city":"Accra","state":"","postcode":"233","country":"Ghana","telephone":"+233 24 344 1913","fuels":["Unleaded 98","Unleaded 95","Diesel"],"amenities":["Air/Water","Service Bay","Fast Food","Food Store","Self Service","Toilets","Full Service","Truck Parking","High Flow Diesel","Brand Loyalty","Parking","Lube Service","Convenience Store","Tyres & Batteries"],"payments":["Credit Card","Mobile Payment","Pay at Pump","Fleet Card"],"open24Hours":false,"hours":null,"openStatusRaw":"closed","nextStatusChange":"2026-02-01T06:00:00.225Z"},{"id":"shell-10123830","name":"SHELL SPINTEX INDUSTRIAL AREA","brand":"shell","country_code":"GH","lat":5.640903,"lng":-0.119184,"address":"Accra,Spintex ","city":"Accra,Spintex","state":"","postcode":"233","country":"Ghana","telephone":"+233 24 499 7627","fuels":["Unleaded 95","Diesel"],"amenities":["Convenience Store","Service Bay","Self Service","Toilets","Full Service","Truck Parking","High Flow Diesel","Brand Loyalty","Parking","Lube Service"],"payments":["Credit Card","Mobile Payment","Pay at Pump","Fleet Card"],"open24Hours":false,"hours":null,"openStatusRaw":"closed","nextStatusChange":"2026-02-01T06:00:00.244Z"},{"id":"shell-10128626","name":"SHELL TEMA COMM-2","brand":"shell","country_code":"GH","lat":5.63083,"lng":-0.011386,"address":"Tema, Community 2","city":"Tema","state":"","postcode":"233","country":"Ghana","telephone":"+233 24 412 1241","fuels":["Unleaded 95","Diesel"],"amenities":["Air/Water","Convenience Store","Service Bay","Disabled Access","Self Service","Toilets","Full Service","Truck Parking","High Flow Diesel","Brand Loyalty","Parking","Lube Service","Other"],"payments":["Credit Card","Mobile Payment","Pay at Pump","Fleet Card"],"open24Hours":false,"hours":null,"openStatusRaw":"closed","nextStatusChange":"2026-02-01T06:00:00.403Z"},{"id":"shell-10128602","name":"SHELL TEMA HARBOUR","brand":"shell","country_code":"GH","lat":5.63726,"lng":0.003391,"address":"Tema","city":"Tema","state":"","postcode":"233","country":"Ghana","telephone":"+233 24 603 1418","fuels":["Unleaded 98","Unleaded 95","Diesel"],"amenities":["Air/Water","Convenience Store","Self Service","Toilets","Full Service","Truck Parking","High Flow Diesel","Brand Loyalty","Parking","Lube Service","Service Bay"],"payments":["Credit Card","Mobile Payment","Pay at Pump","Fleet Card"],"open24Hours":false,"hours":null,"openStatusRaw":"closed","nextStatusChange":"2026-02-01T06:00:00.479Z"},{"id":"shell-10128688","name":"SHELL HARBOUR ROUNDABOUT","brand":"shell","country_code":"GH","lat":5.639779,"lng":0.004649,"address":"Tema","city":"Tema","state":"","postcode":"233","country":"Ghana","telephone":"+233 54 750 8661","fuels":["Unleaded 95","Diesel"],"amenities":["Air/Water","Self Service","Toilets","Full Service","Truck Parking","High Flow Diesel","Brand Loyalty","Parking","Lube Service","Service Bay","Convenience Store"],"payments":["Credit Card","Mobile Payment","Pay at Pump","Fleet Card"],"open24Hours":false,"hours":null,"openStatusRaw":"closed","nextStatusChange":"2026-02-01T06:00:00.496Z"},{"id":"shell-10128582","name":"SHELL TEMA WAREHOUSE","brand":"shell","country_code":"GH","lat":5.643331,"lng":0.010757,"address":"Tema","city":"Tema","state":"","postcode":"233","country":"Ghana","telephone":"+233 24 428 7222","fuels":["Unleaded 95","Diesel"],"amenities":["Air/Water","Convenience Store","Self Service","Toilets","Full Service","Truck Parking","High Flow Diesel","Brand Loyalty","Parking","Lube Service","Service Bay"],"payments":["Credit Card","Mobile Payment","Pay at Pump","Fleet Card"],"open24Hours":false,"hours":null,"openStatusRaw":"closed","nextStatusChange":"2026-02-01T06:00:00.532Z"},{"id":"shell-10128646","name":"SHELL TEMA COMM-1","brand":"shell","country_code":"GH","lat":5.646479,"lng":-0.001505,"address":"TEMA, Community 1","city":"TEMA","state":"","postcode":"233","country":"Ghana","telephone":"+233 24 437 3374","fuels":["Unleaded 95","Diesel"],"amenities":["Air/Water","Convenience Store","Self Service","Toilets","Full Service","Truck Parking","High Flow Diesel","Brand Loyalty","Parking","Lube Service","Service Bay"],"payments":["Credit Card","Mobile Payment","Pay at Pump","Fleet Card"],"open24Hours":false,"hours":null,"openStatusRaw":"closed","nextStatusChange":"2026-02-01T06:00:00.565Z"},{"id":"shell-10123883","name":"SHELL LASHIBI","brand":"shell","country_code":"GH","lat":5.643017,"lng":-0.059626,"address":"Accra","city":"Accra","state":"","postcode":"233","country":"Ghana","telephone":"+233 20 694 7944","fuels":["Unleaded 95","Diesel"],"amenities":["Convenience Store","Self Service","Toilets","Full Service","Truck Parking","High Flow Diesel","Brand Loyalty","Parking","Lube Service","Service Bay"],"payments":["Credit Card","Mobile Payment","Pay at Pump","Fleet Card"],"open24Hours":false,"hours":null,"openStatusRaw":"closed","nextStatusChange":"2026-02-01T06:00:00.614Z"},{"id":"shell-10128625","name":"SHELL SPINTEX ROAD","brand":"shell","country_code":"GH","lat":5.641982,"lng":-0.109392,"address":"Accra","city":"Accra","state":"","postcode":"233","country":"Ghana","telephone":"+233 24 461 9597","fuels":["Unleaded 98","Unleaded 95","Diesel"],"amenities":["Air/Water","Convenience Store","Fast Food","Food Store","Self Service","Toilets","Full Service","Truck Parking","High Flow Diesel","Brand Loyalty","Parking","Lube Service","Service Bay"],"payments":["Credit Card","Mobile Payment","Pay at Pump","Fleet Card"],"open24Hours":false,"hours":null,"openStatusRaw":"closed","nextStatusChange":"2026-02-01T06:00:00.700Z"},{"id":"shell-10128619","name":"SHELL TEMA COMM-7","brand":"shell","country_code":"GH","lat":5.662398,"lng":-0.010039,"address":"Tema, Community 7","city":"Tema","state":"","postcode":"233","country":"Ghana","telephone":"+233 24 438 3222","fuels":["Unleaded 98","Unleaded 95","Diesel"],"amenities":["Air/Water","Convenience Store","ATM","Self Service","Toilets","Full Service","Truck Parking","High Flow Diesel","Brand Loyalty","Parking","Lube Service","Service Bay","Other"],"payments":["Credit Card","Mobile Payment","Pay at Pump","Fleet Card"],"open24Hours":false,"hours":null,"openStatusRaw":"closed","nextStatusChange":"2026-02-01T06:00:00.804Z"},{"id":"shell-10128594","name":"SHELL TEMA PORT ROAD","brand":"shell","country_code":"GH","lat":5.665757,"lng":-0.006309,"address":"Tema","city":"Tema","state":"","postcode":"233","country":"Ghana","telephone":"+233 24 438 3222","fuels":["Unleaded 98","Unleaded 95","Diesel"],"amenities":["Air/Water","Convenience Store","Service Bay","Self Service","Toilets","Full Service","Truck Parking","High Flow Diesel","Brand Loyalty","Parking","Lube Service","Tyres & Batteries"],"payments":["Credit Card","Mobile Payment","Pay at Pump","Fleet Card"],"open24Hours":false,"hours":null,"openStatusRaw":"closed","nextStatusChange":"2026-02-01T06:00:00.837Z"},{"id":"shell-10123819","name":"SHELL TRASACCO ROAD","brand":"shell","country_code":"GH","lat":5.648278,"lng":-0.132569,"address":"Accra","city":"Accra","state":"","postcode":"233","country":"Ghana","telephone":"+233 26 617 6883","fuels":["Unleaded 98","Unleaded 95","Diesel"],"amenities":["Convenience Store","Toilets","Self Service","Full Service","Truck Parking","High Flow Diesel","Brand Loyalty","Parking","Lube Service","Service Bay"],"payments":["Credit Card","Mobile Payment","Pay at Pump","Fleet Card"],"open24Hours":false,"hours":null,"openStatusRaw":"closed","nextStatusChange":"2026-02-01T06:00:00.853Z"},{"id":"shell-10128637","name":"SHELL TEMA COMM-11","brand":"shell","country_code":"GH","lat":5.66586,"lng":-0.018528,"address":"TEMA, Community 11","city":"TEMA","state":"","postcode":"233","country":"Ghana","telephone":"+233 24 428 7222","fuels":["Unleaded 98","Unleaded 95","Diesel"],"amenities":["Air/Water","Convenience Store","Cafe","Disabled Access","Fast Food","Food Store","Self Service","Toilets","Full Service","Truck Parking","High Flow Diesel","Brand Loyalty","Parking","Lube Service","Service Bay"],"payments":["Credit Card","Mobile Payment","Pay at Pump","Fleet Card"],"open24Hours":false,"hours":null,"openStatusRaw":"closed","nextStatusChange":"2026-02-01T06:00:00.869Z"},{"id":"shell-10128612","name":"SHELL TEMA COMM-8","brand":"shell","country_code":"GH","lat":5.670581,"lng":-0.014126,"address":"Tema, Community 8","city":"Tema","state":"","postcode":"233","country":"Ghana","telephone":"+233 24 461 7812","fuels":["Unleaded 98","Unleaded 95","Diesel"],"amenities":["Air/Water","Convenience Store","ATM","Service Bay","Disabled Access","Fast Food","Food Store","Self Service","Toilets","Full Service","Truck Parking","High Flow Diesel","Brand Loyalty","Parking","Lube Service","Other"],"payments":["Credit Card","Mobile Payment","Pay at Pump","Fleet Card"],"open24Hours":false,"hours":null,"openStatusRaw":"closed","nextStatusChange":"2026-02-01T06:00:00.312Z"},{"id":"shell-10123863","name":"SHELL TEMA HOSPITAL ROAD","brand":"shell","country_code":"GH","lat":5.668603,"lng":-0.019426,"address":"Tema","city":"Tema","state":"","postcode":"233","country":"Ghana","telephone":"+233 26 444 0088","fuels":["Unleaded 95","Diesel"],"amenities":["Convenience Store","ATM","Service Bay","Self Service","Toilets","Full Service","Truck Parking","High Flow Diesel","Brand Loyalty","Parking","Lube Service","Other","Tyres & Batteries"],"payments":["Credit Card","Mobile Payment","Pay at Pump","Fleet Card"],"open24Hours":false,"hours":null,"openStatusRaw":"closed","nextStatusChange":"2026-02-01T06:00:00.330Z"},{"id":"shell-10123832","name":"SHELL TEMA COMM-12 ROUNDABOUT","brand":"shell","country_code":"GH","lat":5.6789,"lng":-0.023423,"address":"Tema, Community 12","city":"Tema","state":"","postcode":"233","country":"Ghana","telephone":"+233 26 617 6883","fuels":["CNG","Unleaded 98","Unleaded 95","Diesel"],"amenities":["Convenience Store","Disabled Access","Fast Food","Food Store","Self Service","Toilets","Full Service","Truck Parking","High Flow Diesel","Brand Loyalty","Parking","Lube Service"],"payments":["Credit Card","Mobile Payment","Pay at Pump","Fleet Card"],"open24Hours":false,"hours":null,"openStatusRaw":"closed","nextStatusChange":"2026-02-01T06:00:00.423Z"},{"id":"shell-10123884","name":"SHELL DAHWENYA ROAD","brand":"shell","country_code":"GH","lat":5.694322,"lng":-0.003077,"address":"Tema","city":"Tema","state":"","postcode":"233","country":"Ghana","telephone":"+233 26 617 6883","fuels":["Unleaded 98","Unleaded 95","Diesel"],"amenities":["Convenience Store","Service Bay","Self Service","Toilets","Full Service","Truck Parking","High Flow Diesel","Brand Loyalty","Parking","Lube Service"],"payments":["Credit Card","Mobile Payment","Pay at Pump","Fleet Card"],"open24Hours":false,"hours":null,"openStatusRaw":"closed","nextStatusChange":"2026-02-01T06:00:00.509Z"},{"id":"shell-10128735","name":"SHELL ASHAIMAN TOWNCENTER","brand":"shell","country_code":"GH","lat":5.682362,"lng":-0.037213,"address":"Ashaiman","city":"Ashaiman","state":"","postcode":"233","country":"Ghana","telephone":"+233 24 366 3240","fuels":["Unleaded 95","Diesel"],"amenities":["Air/Water","Convenience Store","ATM","Disabled Access","Self Service","Toilets","Full Service","Truck Parking","High Flow Diesel","Brand Loyalty","Parking","Lube Service","Service Bay"],"payments":["Credit Card","Mobile Payment","Pay at Pump","Fleet Card"],"open24Hours":false,"hours":null,"openStatusRaw":"closed","nextStatusChange":"2026-02-01T06:00:00.585Z"},{"id":"shell-10124040","name":"SHELL ASHAIMAN MARKET","brand":"shell","country_code":"GH","lat":5.6856,"lng":-0.033619,"address":"Ashaiman ","city":"Ashaiman","state":"","postcode":"233","country":"Ghana","telephone":"+233 24 361 2046","fuels":["Unleaded 98","Unleaded 95","Diesel"],"amenities":["Convenience Store","Disabled Access","Self Service","Toilets","Full Service","Truck Parking","High Flow Diesel","Brand Loyalty","Parking","Lube Service","Service Bay","Other"],"payments":["Credit Card","Mobile Payment","Pay at Pump","Fleet Card"],"open24Hours":false,"hours":null,"openStatusRaw":"closed","nextStatusChange":"2026-02-01T06:00:00.604Z"},{"id":"shell-10123824","name":"SHELL TEMA COMM-23","brand":"shell","country_code":"GH","lat":5.676112,"lng":-0.069058,"address":"Tema, Community 23","city":"Tema","state":"","postcode":"233","country":"Ghana","telephone":"+233 26 617 6883","fuels":["CNG","Unleaded 98","Unleaded 95","Diesel"],"amenities":["Convenience Store","Self Service","Toilets","Full Service","Truck Parking","High Flow Diesel","Brand Loyalty","Parking","Lube Service","Service Bay"],"payments":["Credit Card","Mobile Payment","Pay at Pump","Fleet Card"],"open24Hours":false,"hours":null,"openStatusRaw":"closed","nextStatusChange":"2026-02-01T06:00:00.641Z"},{"id":"shell-10123845","name":"SHELL TEMA COMM-18","brand":"shell","country_code":"GH","lat":5.67755,"lng":-0.076559,"address":"Tema, Community 18","city":"Tema","state":"","postcode":"233","country":"Ghana","telephone":"+233 24 382 7497","fuels":["Unleaded 98","Unleaded 95","Diesel"],"amenities":["Convenience Store","ATM","Service Bay","Fast Food","Food Store","Self Service","Toilets","Full Service","Truck Parking","High Flow Diesel","Brand Loyalty","Parking","Lube Service"],"payments":["Credit Card","Mobile Payment","Pay at Pump","Fleet Card"],"open24Hours":false,"hours":null,"openStatusRaw":"closed","nextStatusChange":"2026-02-01T06:00:00.718Z"},{"id":"shell-10128656","name":"Shell Tema C25","brand":"shell","country_code":"GH","lat":5.736629,"lng":0.036584,"address":"Tema, Community 25","city":"Tema","state":"","postcode":"233","country":"Ghana","telephone":"+233 24 361 2046","fuels":["Unleaded 98","Unleaded 95","Diesel"],"amenities":["Disabled Access","Self Service","Toilets","Full Service","Truck Parking","High Flow Diesel","Convenience Store","Brand Loyalty","Parking","Lube Service"],"payments":["Credit Card","Mobile Payment","Pay at Pump","Fleet Card"],"open24Hours":false,"hours":null,"openStatusRaw":"closed","nextStatusChange":"2026-02-01T06:00:00.813Z"},{"id":"shell-10128700","name":"SHELL EAST LEGON","brand":"shell","country_code":"GH","lat":5.650571,"lng":-0.150939,"address":"Accra ","city":"Accra","state":"","postcode":"233","country":"Ghana","telephone":"+233 24 499 7627","fuels":["Unleaded 98","Unleaded 95","Diesel"],"amenities":["Air/Water","Fast Food","Food Store","Self Service","Toilets","Full Service","Truck Parking","High Flow Diesel","Brand Loyalty","Parking","Lube Service","Convenience Store","Service Bay"],"payments":["Credit Card","Mobile Payment","Pay at Pump","Fleet Card"],"open24Hours":false,"hours":null,"openStatusRaw":"closed","nextStatusChange":"2026-02-01T06:00:00.832Z"},{"id":"shell-10128583","name":"SHELL TEGBI KETA","brand":"shell","country_code":"GH","lat":5.853675,"lng":0.973347,"address":"Tegbi ","city":"Tegbi","state":"","postcode":"233","country":"Ghana","telephone":"+233 24 478 6812","fuels":["Premium Diesel","Unleaded 95","Diesel"],"amenities":["Self Service","Toilets","Full Service","Truck Parking","High Flow Diesel","Brand Loyalty","Parking","Lube Service","Service Bay"],"payments":["Credit Card","Mobile Payment","Pay at Pump","Fleet Card"],"open24Hours":false,"hours":null,"openStatusRaw":"closed","nextStatusChange":"2026-02-01T06:00:00.867Z"},{"id":"shell-10123914","name":"SHELL MATAHEKO-AFIENYA","brand":"shell","country_code":"GH","lat":5.767872,"lng":-0.001594,"address":"AFIENYA MATAHEKO ","city":"AFIENYA MATAHEKO","state":"","postcode":"233","country":"Ghana","telephone":"+233 54 750 8661","fuels":["Unleaded 95","Diesel"],"amenities":["Self Service","Toilets","Full Service","Truck Parking","High Flow Diesel","Brand Loyalty","Parking","Lube Service","Service Bay","Convenience Store"],"payments":["Credit Card","Mobile Payment","Pay at Pump","Fleet Card"],"open24Hours":false,"hours":null,"openStatusRaw":"closed","nextStatusChange":"2026-02-01T06:00:00.001Z"},{"id":"shell-10123911","name":"SHELL SCHOOL JUNCTION","brand":"shell","country_code":"GH","lat":5.668963,"lng":-0.12911,"address":"Adjiringanor","city":"Adjiringanor","state":"","postcode":"233","country":"Ghana","telephone":"+233 24 295 7680","fuels":["Unleaded 98","Unleaded 95","Diesel"],"amenities":["Self Service","Toilets","Full Service","Truck Parking","High Flow Diesel","Brand Loyalty","Parking","Lube Service","Service Bay","Convenience Store","Tyres & Batteries"],"payments":["Credit Card","Mobile Payment","Pay at Pump","Fleet Card"],"open24Hours":false,"hours":null,"openStatusRaw":"closed","nextStatusChange":"2026-02-01T06:00:00.027Z"},{"id":"shell-10128624","name":"SHELL NANAKROM ROAD","brand":"shell","country_code":"GH","lat":5.681688,"lng":-0.120127,"address":"Nanakrom ","city":"Nanakrom","state":"","postcode":"233","country":"Ghana","telephone":"+233 24 977 3261","fuels":["Unleaded 98","Unleaded 95","Diesel"],"amenities":["Air/Water","Convenience Store","Self Service","Toilets","Full Service","Truck Parking","High Flow Diesel","Brand Loyalty","Parking","Lube Service","Service Bay"],"payments":["Credit Card","Mobile Payment","Pay at Pump","Fleet Card"],"open24Hours":false,"hours":null,"openStatusRaw":"closed","nextStatusChange":"2026-02-01T06:00:00.091Z"},{"id":"shell-10128731","name":"SHELL ASHAIMAN-ZENU ROAD","brand":"shell","country_code":"GH","lat":5.730739,"lng":-0.064566,"address":"Ashaiman","city":"Ashaiman","state":"","postcode":"233","country":"Ghana","telephone":"+233 24 433 5901","fuels":["Unleaded 95","Diesel"],"amenities":["Self Service","Toilets","Full Service","Truck Parking","High Flow Diesel","Brand Loyalty","Parking","Lube Service","Service Bay"],"payments":["Credit Card","Mobile Payment","Pay at Pump","Fleet Card"],"open24Hours":false,"hours":null,"openStatusRaw":"closed","nextStatusChange":"2026-02-01T06:00:00.135Z"},{"id":"shell-10128733","name":"SHELL DENU","brand":"shell","country_code":"GH","lat":6.103036,"lng":1.146497,"address":"Denu","city":"Denu","state":"","postcode":"233","country":"Ghana","telephone":"+233 24 478 6812","fuels":["Premium Diesel","Unleaded 95","Diesel"],"amenities":["Air/Water","Convenience Store","Self Service","Toilets","Full Service","Truck Parking","High Flow Diesel","Brand Loyalty","Parking","Lube Service","Service Bay"],"payments":["Credit Card","Mobile Payment","Pay at Pump","Fleet Card"],"open24Hours":false,"hours":null,"openStatusRaw":"closed","nextStatusChange":"2026-02-01T06:00:00.190Z"},{"id":"shell-10128693","name":"SHELL AFLAO","brand":"shell","country_code":"GH","lat":6.118084,"lng":1.189123,"address":"Aflao","city":"Aflao","state":"","postcode":"233","country":"Ghana","telephone":"+233 24 478 6812","fuels":["Unleaded 95","Diesel"],"amenities":["Convenience Store","Disabled Access","Self Service","Toilets","Full Service","Truck Parking","High Flow Diesel","Brand Loyalty","Parking","Lube Service","Service Bay"],"payments":["Credit Card","Mobile Payment","Pay at Pump","Fleet Card"],"open24Hours":false,"hours":null,"openStatusRaw":"closed","nextStatusChange":"2026-02-01T06:00:00.210Z"},{"id":"shell-10128716","name":"SHELL AKATSI BY PASS","brand":"shell","country_code":"GH","lat":6.114311,"lng":0.799748,"address":"Agbedrafor junctions","city":"Agbedrafor junctions","state":"","postcode":"233","country":"Ghana","telephone":"+233 24 478 6812","fuels":["Premium Diesel","Unleaded 95","Diesel"],"amenities":["Self Service","Toilets","Full Service","Truck Parking","High Flow Diesel","Brand Loyalty","Parking","Lube Service"],"payments":["Credit Card","Mobile Payment","Pay at Pump","Fleet Card"],"open24Hours":false,"hours":null,"openStatusRaw":"closed","nextStatusChange":"2026-02-01T06:00:00.230Z"},{"id":"shell-10128725","name":"SHELL AKATSI","brand":"shell","country_code":"GH","lat":6.130392,"lng":0.796604,"address":"Akatsi volta ","city":"Akatsi volta","state":"","postcode":"233","country":"Ghana","telephone":"+233 24 478 6812","fuels":["Premium Diesel","Unleaded 95","Diesel"],"amenities":["Air/Water","Self Service","Toilets","Full Service","Truck Parking","High Flow Diesel","Brand Loyalty","Parking","Lube Service","Convenience Store"],"payments":["Credit Card","Mobile Payment","Pay at Pump","Fleet Card"],"open24Hours":false,"hours":null,"openStatusRaw":"closed","nextStatusChange":"2026-02-01T06:00:00.250Z"},{"id":"shell-10128697","name":"SHELL AFIENYA TOLL BOOTH","brand":"shell","country_code":"GH","lat":5.786437,"lng":0.002179,"address":"Accra","city":"Accra","state":"","postcode":"233","country":"Ghana","telephone":"+233 24 428 7222","fuels":["Unleaded 95","Diesel"],"amenities":["Self Service","Toilets","Full Service","Truck Parking","High Flow Diesel","Brand Loyalty","Parking","Lube Service","Service Bay"],"payments":["Credit Card","Mobile Payment","Pay at Pump","Fleet Card"],"open24Hours":false,"hours":null,"openStatusRaw":"closed","nextStatusChange":"2026-02-01T06:00:00.901Z"},{"id":"shell-10123981","name":"SHELL BIBIANI","brand":"shell","country_code":"GH","lat":6.429314,"lng":-2.306492,"address":"Bibiani- Kwamekrom ","city":"Bibiani- Kwamekrom","state":"","postcode":"233","country":"Ghana","telephone":"+233 24 612 1513","fuels":["CNG","Premium Diesel","Unleaded 95","Diesel"],"amenities":["Self Service","Toilets","Full Service","Truck Parking","High Flow Diesel","Brand Loyalty","Parking","Lube Service","Service Bay","Convenience Store","Tyres & Batteries"],"payments":["Credit Card","Mobile Payment","Pay at Pump","Fleet Card"],"open24Hours":false,"hours":null,"openStatusRaw":"closed","nextStatusChange":"2026-02-01T06:00:00.775Z"},{"id":"shell-10128680","name":"SHELL ANWIANKWANTA","brand":"shell","country_code":"GH","lat":6.46826,"lng":-1.637921,"address":"Anwia Nkwanta","city":"Anwia Nkwanta","state":"","postcode":"233","country":"Ghana","telephone":"+233 20 623 2365","fuels":["Unleaded 95","Diesel"],"amenities":["Air/Water","Self Service","Toilets","Full Service","Truck Parking","High Flow Diesel","Brand Loyalty","Parking","Lube Service","Service Bay","Convenience Store"],"payments":["Credit Card","Mobile Payment","Pay at Pump","Fleet Card"],"open24Hours":false,"hours":null,"openStatusRaw":"closed","nextStatusChange":"2026-02-01T06:00:00.553Z"},{"id":"shell-10128710","name":"SHELL ADJAMASU","brand":"shell","country_code":"GH","lat":6.53385,"lng":-1.668756,"address":"Kumasi off Obuasi road ","city":"Kumasi off Obuasi road","state":"","postcode":"233","country":"Ghana","telephone":"+233 54 939 0745","fuels":["Unleaded 95","Diesel"],"amenities":["Air/Water","Self Service","Toilets","Full Service","Truck Parking","High Flow Diesel","Brand Loyalty","Parking","Lube Service","Service Bay","Convenience Store"],"payments":["Credit Card","Mobile Payment","Pay at Pump","Fleet Card"],"open24Hours":false,"hours":null,"openStatusRaw":"closed","nextStatusChange":"2026-02-01T06:00:00.633Z"},{"id":"shell-10128674","name":"SHELL AWOSHIE-POKUASE ROAD","brand":"shell","country_code":"GH","lat":5.671841,"lng":-0.29211,"address":"Accra","city":"Accra","state":"","postcode":"233","country":"Ghana","telephone":"+233 24 498 8110","fuels":["Unleaded 98","Unleaded 95","Diesel"],"amenities":["Air/Water","Self Service","Toilets","Full Service","Truck Parking","High Flow Diesel","Brand Loyalty","Parking","Lube Service","Service Bay","Convenience Store"],"payments":["Credit Card","Mobile Payment","Pay at Pump","Fleet Card"],"open24Hours":false,"hours":null,"openStatusRaw":"closed","nextStatusChange":"2026-02-01T06:00:00.955Z"},{"id":"shell-10128588","name":"SHELL OFANKOR","brand":"shell","country_code":"GH","lat":5.657631,"lng":-0.264801,"address":"Ofankor Barrier","city":"Ofankor Barrier","state":"","postcode":"233","country":"Ghana","telephone":"+233 24 344 1913","fuels":["Unleaded 98","Unleaded 95","Diesel"],"amenities":["Air/Water","ATM","Self Service","Toilets","Full Service","Truck Parking","High Flow Diesel","Brand Loyalty","Parking","Lube Service","Service Bay","Convenience Store"],"payments":["Credit Card","Mobile Payment","Pay at Pump","Fleet Card"],"open24Hours":false,"hours":null,"openStatusRaw":"closed","nextStatusChange":"2026-02-01T06:00:00.794Z"},{"id":"shell-10123967","name":"SHELL KATAMANSO KUBEKROM","brand":"shell","country_code":"GH","lat":5.757128,"lng":-0.079478,"address":"Accra","city":"Accra","state":"","postcode":"233","country":"Ghana","telephone":"+233 24 315 2550","fuels":["CNG","Unleaded 95","Diesel"],"amenities":["Self Service","Toilets","Full Service","Truck Parking","High Flow Diesel","Brand Loyalty","Parking","Lube Service","Service Bay","Convenience Store"],"payments":["Credit Card","Mobile Payment","Pay at Pump","Fleet Card"],"open24Hours":false,"hours":null,"openStatusRaw":"closed","nextStatusChange":"2026-02-01T06:00:00.674Z"},{"id":"shell-10123869","name":"SHELL SHAI HILLS","brand":"shell","country_code":"GH","lat":5.873539,"lng":0.035102,"address":"Shai Osuduku District","city":"Shai Osuduku District","state":"","postcode":"233","country":"Ghana","telephone":"+233 24 361 2046","fuels":["Unleaded 95","Diesel"],"amenities":["Toilets","Self Service","Full Service","Truck Parking","High Flow Diesel","Brand Loyalty","Parking","Lube Service","Service Bay"],"payments":["Credit Card","Mobile Payment","Pay at Pump","Fleet Card"],"open24Hours":false,"hours":null,"openStatusRaw":"closed","nextStatusChange":"2026-02-01T06:00:00.698Z"},{"id":"shell-10128727","name":"SHELL ASHALEY BOTWE","brand":"shell","country_code":"GH","lat":5.685959,"lng":-0.138228,"address":"Ashaley Botwe","city":"Ashaley Botwe","state":"","postcode":"233","country":"Ghana","telephone":"+233 24 499 7627","fuels":["Unleaded 95","Diesel"],"amenities":["Air/Water","Convenience Store","ATM","Service Bay","Fast Food","Food Store","Self Service","Toilets","Full Service","Truck Parking","High Flow Diesel","Brand Loyalty","Parking","Lube Service"],"payments":["Credit Card","Mobile Payment","Pay at Pump","Fleet Card"],"open24Hours":false,"hours":null,"openStatusRaw":"closed","nextStatusChange":"2026-02-01T06:00:00.987Z"},{"id":"shell-10128586","name":"SHELL LAKESIDE","brand":"shell","country_code":"GH","lat":5.695356,"lng":-0.133781,"address":"Accra","city":"Accra","state":"","postcode":"233","country":"Ghana","telephone":"+233 24 499 7627","fuels":["Unleaded 98","Unleaded 95","Diesel"],"amenities":["Air/Water","Service Bay","Disabled Access","Self Service","Toilets","Full Service","Truck Parking","High Flow Diesel","Brand Loyalty","Parking","Lube Service","Convenience Store"],"payments":["Credit Card","Mobile Payment","Pay at Pump","Fleet Card"],"open24Hours":false,"hours":null,"openStatusRaw":"closed","nextStatusChange":"2026-02-01T06:00:00.009Z"},{"id":"shell-10123893","name":"SHELL KUKUOM","brand":"shell","country_code":"GH","lat":6.698747,"lng":-2.446359,"address":"Kukuom","city":"Kukuom","state":"","postcode":"233","country":"Ghana","telephone":"+233 54 046 9208","fuels":["Unleaded 95","Diesel"],"amenities":["Toilets","Car Wash","Self Service","Full Service","Truck Parking","High Flow Diesel","Brand Loyalty","Parking","Lube Service","Service Bay","Convenience Store"],"payments":["Credit Card","Mobile Payment","Pay at Pump","Fleet Card"],"open24Hours":false,"hours":null,"openStatusRaw":"closed","nextStatusChange":"2026-02-01T06:00:00.658Z"},{"id":"shell-10128675","name":"SHELL APUTUOGYA","brand":"shell","country_code":"GH","lat":6.593915,"lng":-1.554826,"address":"Aputuogya ","city":"Aputuogya","state":"","postcode":"233","country":"Ghana","telephone":"+233 24 914 1130","fuels":["Premium Diesel","Unleaded 95","Diesel"],"amenities":["Air/Water","Self Service","Toilets","Full Service","Truck Parking","High Flow Diesel","Brand Loyalty","Parking","Lube Service","Service Bay","Convenience Store","Tyres & Batteries"],"payments":["Credit Card","Mobile Payment","Pay at Pump","Fleet Card"],"open24Hours":false,"hours":null,"openStatusRaw":"closed","nextStatusChange":"2026-02-01T06:00:00.774Z"},{"id":"shell-10128690","name":"SHELL ATWIMA MIM","brand":"shell","country_code":"GH","lat":6.699826,"lng":-1.776845,"address":"Kumasi ","city":"Kumasi","state":"","postcode":"233","country":"Ghana","telephone":"+233 27 264 0975","fuels":["Premium Diesel","Unleaded 95","Diesel"],"amenities":["Air/Water","Self Service","Toilets","Full Service","Truck Parking","High Flow Diesel","Brand Loyalty","Parking","Lube Service","Service Bay","Convenience Store"],"payments":["Credit Card","Mobile Payment","Pay at Pump","Fleet Card"],"open24Hours":false,"hours":null,"openStatusRaw":"closed","nextStatusChange":"2026-02-01T06:00:00.793Z"},{"id":"shell-10128568","name":"SHELL SANTASI-KUMASI","brand":"shell","country_code":"GH","lat":6.650305,"lng":-1.643805,"address":"Kumasi","city":"Kumasi","state":"","postcode":"233","country":"Ghana","telephone":"+233 55 063 9451","fuels":["Unleaded 95","Diesel"],"amenities":["Air/Water","Self Service","Toilets","Full Service","Truck Parking","High Flow Diesel","Brand Loyalty","Parking","Lube Service","Convenience Store"],"payments":["Credit Card","Mobile Payment","Pay at Pump","Fleet Card"],"open24Hours":false,"hours":null,"openStatusRaw":"closed","nextStatusChange":"2026-02-01T06:00:00.813Z"},{"id":"shell-10128660","name":"SHELL KUMASI-BEKWAI ROAD","brand":"shell","country_code":"GH","lat":6.65044,"lng":-1.643625,"address":"KUMASI","city":"KUMASI","state":"","postcode":"233","country":"Ghana","telephone":"+233 54 750 8661","fuels":["Unleaded 95","Diesel"],"amenities":["Air/Water","Disabled Access","Self Service","Toilets","Full Service","Truck Parking","High Flow Diesel","Brand Loyalty","Parking","Lube Service","Service Bay","Convenience Store"],"payments":["Credit Card","Mobile Payment","Pay at Pump","Fleet Card"],"open24Hours":false,"hours":null,"openStatusRaw":"closed","nextStatusChange":"2026-02-01T06:00:00.804Z"},{"id":"shell-10128577","name":"SHELL RIDGE","brand":"shell","country_code":"GH","lat":6.669223,"lng":-1.624536,"address":"Kumasi-nhyiaeso","city":"Kumasi-nhyiaeso","state":"","postcode":"233","country":"Ghana","telephone":"+233 20 816 4275","fuels":["Unleaded 98","Unleaded 95","Diesel"],"amenities":["Air/Water","Service Bay","Fast Food","Food Store","Self Service","Toilets","Full Service","Truck Parking","High Flow Diesel","Brand Loyalty","Parking","Lube Service","Convenience Store"],"payments":["Credit Card","Mobile Payment","Pay at Pump","Fleet Card"],"open24Hours":false,"hours":null,"openStatusRaw":"closed","nextStatusChange":"2026-02-01T06:00:00.822Z"},{"id":"shell-10128707","name":"SHELL ASOKWA BYPASS","brand":"shell","country_code":"GH","lat":6.670661,"lng":-1.597227,"address":"Kumasi","city":"Kumasi","state":"","postcode":"233","country":"Ghana","telephone":"+233 54 750 8661","fuels":["Unleaded 95","Diesel"],"amenities":["Self Service","Toilets","Full Service","Truck Parking","High Flow Diesel","Brand Loyalty","Parking","Lube Service","Service Bay"],"payments":["Credit Card","Mobile Payment","Pay at Pump","Fleet Card"],"open24Hours":false,"hours":null,"openStatusRaw":"closed","nextStatusChange":"2026-02-01T06:00:00.857Z"},{"id":"shell-10128719","name":"SHELL ASOKWA","brand":"shell","country_code":"GH","lat":6.670841,"lng":-1.597362,"address":"Kumasi","city":"Kumasi","state":"","postcode":"233","country":"Ghana","telephone":"+233 50 456 0486","fuels":["Unleaded 98","Unleaded 95","Diesel"],"amenities":["Air/Water","Convenience Store","ATM","Car Wash","Service Bay","Fast Food","Food Store","Self Service","Toilets","Full Service","Truck Parking","High Flow Diesel","Brand Loyalty","Hand Wash","Parking","Lube Service","Other"],"payments":["Credit Card","Mobile Payment","Pay at Pump","Fleet Card"],"open24Hours":false,"hours":null,"openStatusRaw":"closed","nextStatusChange":"2026-02-01T06:00:00.874Z"},{"id":"shell-10128579","name":"SHELL PATAASI","brand":"shell","country_code":"GH","lat":6.688667,"lng":-1.64456,"address":"Kumasi","city":"Kumasi","state":"","postcode":"233","country":"Ghana","telephone":"+233 54 750 8661","fuels":["Unleaded 95","Diesel"],"amenities":["Air/Water","Self Service","Toilets","Full Service","Truck Parking","High Flow Diesel","Brand Loyalty","Parking","Lube Service","Convenience Store"],"payments":["Credit Card","Mobile Payment","Pay at Pump","Fleet Card"],"open24Hours":false,"hours":null,"openStatusRaw":"closed","nextStatusChange":"2026-02-01T06:00:00.909Z"},{"id":"shell-10123942","name":"SHELL NSAWAM ADOAGYIRI","brand":"shell","country_code":"GH","lat":5.818754,"lng":-0.39043,"address":"Nsawam Adoagyire, Nsawam-Adeiso road","city":"Nsawam Adoagyire, Nsawam-Adeiso road","state":"","postcode":"233","country":"Ghana","telephone":"+233 24 904 8577","fuels":["Unleaded 95","Diesel"],"amenities":["Toilets","Self Service","Full Service","Truck Parking","High Flow Diesel","Brand Loyalty","Parking","Lube Service","Service Bay"],"payments":["Credit Card","Mobile Payment","Pay at Pump","Fleet Card"],"open24Hours":false,"hours":null,"openStatusRaw":"closed","nextStatusChange":"2026-02-01T06:00:00.717Z"},{"id":"shell-10123939","name":"SHELL MEDIE ACCRA ROAD","brand":"shell","country_code":"GH","lat":5.758314,"lng":-0.324964,"address":"Accra,Medie","city":"Accra,Medie","state":"","postcode":"233","country":"Ghana","telephone":"+233 50 835 6606","fuels":["Unleaded 95","Diesel"],"amenities":["Car Wash","Self Service","Toilets","Full Service","Truck Parking","High Flow Diesel","Brand Loyalty","Parking","Lube Service","Service Bay","Convenience Store"],"payments":["Credit Card","Mobile Payment","Pay at Pump","Fleet Card"],"open24Hours":false,"hours":null,"openStatusRaw":"closed","nextStatusChange":"2026-02-01T06:00:00.712Z"},{"id":"shell-10123936","name":"SHELL NSAWAM BY-PASS ROAD","brand":"shell","country_code":"GH","lat":5.797809,"lng":-0.349287,"address":"Nsawam,Off Accra-Kumasinhighway","city":"Nsawam,Off Accra-Kumasinhighway","state":"","postcode":"233","country":"Ghana","telephone":"+233 24 681 4702","fuels":["Unleaded 95","Diesel"],"amenities":["Self Service","Toilets","Full Service","Truck Parking","High Flow Diesel","Brand Loyalty","Parking","Lube Service","Service Bay","Convenience Store"],"payments":["Credit Card","Mobile Payment","Pay at Pump","Fleet Card"],"open24Hours":false,"hours":null,"openStatusRaw":"closed","nextStatusChange":"2026-02-01T06:00:00.730Z"},{"id":"shell-10128683","name":"SHELL MEDIE","brand":"shell","country_code":"GH","lat":5.758207,"lng":-0.323775,"address":"Midis","city":"Midis","state":"","postcode":"233","country":"Ghana","telephone":"+233 54 750 8661","fuels":["Unleaded 95","Diesel"],"amenities":["Air/Water","Self Service","Toilets","Full Service","Truck Parking","High Flow Diesel","Brand Loyalty","Parking","Lube Service","Service Bay","Convenience Store"],"payments":["Credit Card","Mobile Payment","Pay at Pump","Fleet Card"],"open24Hours":false,"hours":null,"openStatusRaw":"closed","nextStatusChange":"2026-02-01T06:00:00.748Z"},{"id":"shell-10128668","name":"SHELL HEBRON AC-KSI ROAD","brand":"shell","country_code":"GH","lat":5.773851,"lng":-0.327054,"address":"HEBRON SHELL ","city":"HEBRON SHELL","state":"","postcode":"233","country":"Ghana","telephone":"+233 55 404 7816","fuels":["Unleaded 98","Unleaded 95","Diesel"],"amenities":["Self Service","Toilets","Full Service","Truck Parking","High Flow Diesel","Brand Loyalty","Parking","Lube Service","Service Bay"],"payments":["Credit Card","Mobile Payment","Pay at Pump","Fleet Card"],"open24Hours":false,"hours":null,"openStatusRaw":"closed","nextStatusChange":"2026-02-01T06:00:00.765Z"},{"id":"shell-10128572","name":"SHELL NSAWAM HIGH","brand":"shell","country_code":"GH","lat":5.810304,"lng":-0.348434,"address":"Nsawam ","city":"Nsawam","state":"","postcode":"233","country":"Ghana","telephone":"+233 20 024 8949","fuels":["Unleaded 95","Diesel"],"amenities":["Air/Water","Convenience Store","ATM","Self Service","Toilets","Full Service","Truck Parking","High Flow Diesel","Brand Loyalty","Parking","Lube Service","Service Bay"],"payments":["Credit Card","Mobile Payment","Pay at Pump","Fleet Card"],"open24Hours":false,"hours":null,"openStatusRaw":"closed","nextStatusChange":"2026-02-01T06:00:00.800Z"},{"id":"shell-10128643","name":"SHELL KWABENYA","brand":"shell","country_code":"GH","lat":5.690501,"lng":-0.252224,"address":"Accra","city":"Accra","state":"","postcode":"233","country":"Ghana","telephone":"+233 24 295 7680","fuels":["Unleaded 98","Unleaded 95","Diesel"],"amenities":["Air/Water","Disabled Access","Self Service","Toilets","Full Service","Truck Parking","High Flow Diesel","Brand Loyalty","Parking","Lube Service","Service Bay","Convenience Store"],"payments":["Credit Card","Mobile Payment","Pay at Pump","Fleet Card"],"open24Hours":false,"hours":null,"openStatusRaw":"closed","nextStatusChange":"2026-02-01T06:00:00.135Z"},{"id":"shell-10128633","name":"SHELL KWABENYA-ABOUM JUNCTION","brand":"shell","country_code":"GH","lat":5.695581,"lng":-0.248227,"address":"Accra","city":"Accra","state":"","postcode":"233","country":"Ghana","telephone":"+233 54 422 9274","fuels":["Unleaded 95","Diesel"],"amenities":["Self Service","Toilets","Full Service","Truck Parking","High Flow Diesel","Brand Loyalty","Parking","Lube Service","Service Bay"],"payments":["Credit Card","Mobile Payment","Pay at Pump","Fleet Card"],"open24Hours":false,"hours":null,"openStatusRaw":"closed","nextStatusChange":"2026-02-01T06:00:00.175Z"},{"id":"shell-10123763","name":"SHELL WESTLANDS","brand":"shell","country_code":"GH","lat":5.662038,"lng":-0.205422,"address":"Westlands ","city":"Westlands","state":"","postcode":"233","country":"Ghana","telephone":"+233 20 367 9505","fuels":["Unleaded 98","Unleaded 95","Diesel"],"amenities":["Fast Food","Food Store","Self Service","Toilets","Full Service","Truck Parking","High Flow Diesel","Brand Loyalty","Parking","Lube Service","Convenience Store","Other"],"payments":["Credit Card","Mobile Payment","Pay at Pump","Fleet Card"],"open24Hours":false,"hours":null,"openStatusRaw":"closed","nextStatusChange":"2026-02-01T06:00:00.130Z"},{"id":"shell-10124002","name":"SHELL LEGON UG","brand":"shell","country_code":"GH","lat":5.657361,"lng":-0.180539,"address":"Acrra","city":"Acrra","state":"","postcode":"233","country":"Ghana","telephone":"+233 20 201 8248","fuels":["Unleaded 95","Diesel"],"amenities":["Convenience Store","Car Wash","Service Bay","Self Service","Toilets","Full Service","Truck Parking","High Flow Diesel","Brand Loyalty","Hand Wash","Parking","Lube Service","Tyres & Batteries"],"payments":["Credit Card","Mobile Payment","Pay at Pump","Fleet Card"],"open24Hours":false,"hours":null,"openStatusRaw":"closed","nextStatusChange":"2026-02-01T06:00:00.169Z"},{"id":"shell-10128711","name":"SHELL  KATAMANSO","brand":"shell","country_code":"GH","lat":5.767198,"lng":-0.118016,"address":"Abrepo Junction","city":"Abrepo Junction","state":"","postcode":"233","country":"Ghana","telephone":"+233 54 061 9646","fuels":["Unleaded 95","Diesel"],"amenities":["Air/Water","Convenience Store","Self Service","Toilets","Full Service","Truck Parking","High Flow Diesel","Brand Loyalty","Parking","Lube Service","Service Bay"],"payments":["Credit Card","Mobile Payment","Pay at Pump","Fleet Card"],"open24Hours":false,"hours":null,"openStatusRaw":"closed","nextStatusChange":"2026-02-01T06:00:00.317Z"},{"id":"shell-10128709","name":"SHELL GOASO","brand":"shell","country_code":"GH","lat":6.8157,"lng":-2.503492,"address":"Goaso","city":"Goaso","state":"","postcode":"233","country":"Ghana","telephone":"+233 54 046 9208","fuels":["Unleaded 95","Diesel"],"amenities":["Air/Water","Self Service","Toilets","Full Service","Truck Parking","High Flow Diesel","Brand Loyalty","Parking","Lube Service","Service Bay","Convenience Store","Tyres & Batteries"],"payments":["Credit Card","Mobile Payment","Pay at Pump","Fleet Card"],"open24Hours":false,"hours":null,"openStatusRaw":"closed","nextStatusChange":"2026-02-01T06:00:00.880Z"},{"id":"shell-10128658","name":"SHELL MIM BIBIANI ROAD","brand":"shell","country_code":"GH","lat":6.943845,"lng":-2.608954,"address":"Ahafo-Mim","city":"Ahafo-Mim","state":"","postcode":"233","country":"Ghana","telephone":"+233 54 046 9208","fuels":["Unleaded 95","Diesel"],"amenities":["Self Service","Toilets","Full Service","Truck Parking","High Flow Diesel","Brand Loyalty","Parking","Lube Service","Service Bay"],"payments":["Credit Card","Mobile Payment","Pay at Pump","Fleet Card"],"open24Hours":false,"hours":null,"openStatusRaw":"closed","nextStatusChange":"2026-02-01T06:00:00.200Z"},{"id":"shell-10128669","name":"SHELL MILE 7","brand":"shell","country_code":"GH","lat":6.702298,"lng":-1.716793,"address":"Sunyani road ","city":"Sunyani road","state":"","postcode":"233","country":"Ghana","telephone":"+233 24 391 1000","fuels":["Unleaded 98","Unleaded 95","Diesel"],"amenities":["Air/Water","Convenience Store","ATM","Self Service","Toilets","Full Service","Truck Parking","High Flow Diesel","Brand Loyalty","Parking","Lube Service","Service Bay"],"payments":["Credit Card","Mobile Payment","Pay at Pump","Fleet Card"],"open24Hours":false,"hours":null,"openStatusRaw":"closed","nextStatusChange":"2026-02-01T06:00:00.203Z"},{"id":"shell-10128728","name":"SHELL ABUAKWA ASENEMASO","brand":"shell","country_code":"GH","lat":6.707196,"lng":-1.720521,"address":"Kumasi","city":"Kumasi","state":"","postcode":"233","country":"Ghana","telephone":"+233 24 192 7637","fuels":["Premium Diesel","Unleaded 95","Diesel"],"amenities":["Self Service","Toilets","Full Service","Truck Parking","High Flow Diesel","Brand Loyalty","Parking","Lube Service","Service Bay"],"payments":["Credit Card","Mobile Payment","Pay at Pump","Fleet Card"],"open24Hours":false,"hours":null,"openStatusRaw":"closed","nextStatusChange":"2026-02-01T06:00:00.218Z"},{"id":"shell-10123984","name":"SHELL ASSIN MANSO","brand":"shell","country_code":"GH","lat":6.713129,"lng":-1.719308,"address":"Cape Coast","city":"Cape Coast","state":"","postcode":"233","country":"Ghana","telephone":"+233 24 618 5135","fuels":["CNG","Unleaded 95","Diesel"],"amenities":["Car Wash","Self Service","Toilets","Full Service","Truck Parking","High Flow Diesel","Brand Loyalty","Parking","Lube Service"],"payments":["Credit Card","Mobile Payment","Pay at Pump","Fleet Card"],"open24Hours":false,"hours":null,"openStatusRaw":"closed","nextStatusChange":"2026-02-01T06:00:00.249Z"},{"id":"shell-10128652","name":"SHELL KUMASI-TANOSO","brand":"shell","country_code":"GH","lat":6.696156,"lng":-1.682669,"address":"Kumasi","city":"Kumasi","state":"","postcode":"233","country":"Ghana","telephone":"+233 50 335 6209","fuels":["Unleaded 95","Diesel"],"amenities":["Air/Water","Self Service","Toilets","Full Service","Truck Parking","High Flow Diesel","Brand Loyalty","Parking","Lube Service","Service Bay","Convenience Store"],"payments":["Credit Card","Mobile Payment","Pay at Pump","Fleet Card"],"open24Hours":false,"hours":null,"openStatusRaw":"closed","nextStatusChange":"2026-02-01T06:00:00.265Z"},{"id":"shell-10128699","name":"SHELL ASUOYEBOAH","brand":"shell","country_code":"GH","lat":6.696905,"lng":-1.666352,"address":"Kumasi","city":"Kumasi","state":"","postcode":"233","country":"Ghana","telephone":"+233 24 391 1000","fuels":["Unleaded 98","Premium Diesel","Unleaded 95","Diesel"],"amenities":["Air/Water","Convenience Store","ATM","Self Service","Toilets","Full Service","Truck Parking","High Flow Diesel","Brand Loyalty","Parking","Lube Service","Service Bay"],"payments":["Credit Card","Mobile Payment","Pay at Pump","Fleet Card"],"open24Hours":false,"hours":null,"openStatusRaw":"closed","nextStatusChange":"2026-02-01T06:00:00.308Z"},{"id":"shell-10128590","name":"Shell West Patasi","brand":"shell","country_code":"GH","lat":6.688681,"lng":-1.644523,"address":"Kumasi","city":"Kumasi","state":"","postcode":"233","country":"Ghana","telephone":"+233 24 466 3287","fuels":["Unleaded 98","Unleaded 95","Diesel"],"amenities":["Air/Water","Self Service","Toilets","Full Service","Truck Parking","High Flow Diesel","Brand Loyalty","Parking","Lube Service","Service Bay","Convenience Store"],"payments":["Credit Card","Mobile Payment","Pay at Pump","Fleet Card"],"open24Hours":false,"hours":null,"openStatusRaw":"closed","nextStatusChange":"2026-02-01T06:00:00.198Z"},{"id":"shell-10123912","name":"SHELL BOMFA","brand":"shell","country_code":"GH","lat":6.621997,"lng":-1.289823,"address":"Nobewam","city":"Nobewam","state":"","postcode":"233","country":"Ghana","telephone":"+233 54 555 4340","fuels":["Unleaded 95","Diesel"],"amenities":["Self Service","Toilets","Full Service","Truck Parking","High Flow Diesel","Brand Loyalty","Parking","Lube Service","Service Bay","Convenience Store"],"payments":["Credit Card","Mobile Payment","Pay at Pump","Fleet Card"],"open24Hours":false,"hours":null,"openStatusRaw":"closed","nextStatusChange":"2026-02-01T06:00:00.571Z"},{"id":"shell-10128604","name":"SHELL KONONGO","brand":"shell","country_code":"GH","lat":6.625367,"lng":-1.208795,"address":"Konongo ","city":"Konongo","state":"","postcode":"233","country":"Ghana","telephone":"+233 20 811 1323","fuels":["Unleaded 95","Diesel"],"amenities":["Air/Water","Convenience Store","Self Service","Toilets","Full Service","Truck Parking","High Flow Diesel","Brand Loyalty","Parking","Lube Service","Service Bay","Tyres & Batteries"],"payments":["Credit Card","Mobile Payment","Pay at Pump","Fleet Card"],"open24Hours":false,"hours":null,"openStatusRaw":"closed","nextStatusChange":"2026-02-01T06:00:00.624Z"},{"id":"shell-10128672","name":"SHELL KUMASI TECH.","brand":"shell","country_code":"GH","lat":6.690029,"lng":-1.556398,"address":"Kumasi","city":"Kumasi","state":"","postcode":"233","country":"Ghana","telephone":"+233 20 811 1323","fuels":["Unleaded 98","Unleaded 95","Diesel"],"amenities":["Convenience Store","Service Bay","Fast Food","Food Store","Self Service","Toilets","Full Service","Truck Parking","High Flow Diesel","Brand Loyalty","Parking","Lube Service","Other","Tyres & Batteries"],"payments":["Credit Card","Mobile Payment","Pay at Pump","Fleet Card"],"open24Hours":false,"hours":null,"openStatusRaw":"closed","nextStatusChange":"2026-02-01T06:00:00.690Z"},{"id":"shell-10128678","name":"SHELL HARPER ROAD","brand":"shell","country_code":"GH","lat":6.687063,"lng":-1.623368,"address":"Kumasi","city":"Kumasi","state":"","postcode":"233","country":"Ghana","telephone":"+233 54 772 1711","fuels":["Unleaded 98","Unleaded 95","Diesel"],"amenities":["Air/Water","Convenience Store","Car Wash","Fast Food","Food Store","Self Service","Toilets","Full Service","Truck Parking","High Flow Diesel","Brand Loyalty","Hand Wash","Parking","Lube Service","Service Bay"],"payments":["Credit Card","Mobile Payment","Pay at Pump","Fleet Card"],"open24Hours":false,"hours":null,"openStatusRaw":"closed","nextStatusChange":"2026-02-01T06:00:00.706Z"},{"id":"shell-10128618","name":"SHELL OLD AMAKOM","brand":"shell","country_code":"GH","lat":6.689458,"lng":-1.60698,"address":"Kumasi","city":"Kumasi","state":"","postcode":"233","country":"Ghana","telephone":"+233 54 772 1711","fuels":["Unleaded 95","Diesel"],"amenities":["Air/Water","Convenience Store","Self Service","Toilets","Full Service","Truck Parking","High Flow Diesel","Brand Loyalty","Parking","Lube Service","Service Bay","Other"],"payments":["Credit Card","Mobile Payment","Pay at Pump","Fleet Card"],"open24Hours":false,"hours":null,"openStatusRaw":"closed","nextStatusChange":"2026-02-01T06:00:00.723Z"},{"id":"shell-10128685","name":"SHELL AMAKOM","brand":"shell","country_code":"GH","lat":6.690973,"lng":-1.606776,"address":"Kumasi ","city":"Kumasi","state":"","postcode":"233","country":"Ghana","telephone":"+233 24 355 0346","fuels":["Premium Diesel","Unleaded 95","Diesel"],"amenities":["Convenience Store","Self Service","Toilets","Full Service","Truck Parking","High Flow Diesel","Brand Loyalty","Parking","Lube Service","Service Bay","Tyres & Batteries"],"payments":["Credit Card","Mobile Payment","Pay at Pump","Fleet Card"],"open24Hours":false,"hours":null,"openStatusRaw":"closed","nextStatusChange":"2026-02-01T06:00:00.739Z"},{"id":"shell-10128600","name":"SHELL SUHUM-ASAMANKESE ROAD","brand":"shell","country_code":"GH","lat":6.024646,"lng":-0.466607,"address":"Suhum ","city":"Suhum","state":"","postcode":"233","country":"Ghana","telephone":"+233 24 753 1944","fuels":["Unleaded 95","Diesel"],"amenities":["Self Service","Toilets","Full Service","Truck Parking","High Flow Diesel","Brand Loyalty","Parking","Lube Service"],"payments":["Credit Card","Mobile Payment","Pay at Pump","Fleet Card"],"open24Hours":false,"hours":null,"openStatusRaw":"closed","nextStatusChange":"2026-02-01T06:00:00.712Z"},{"id":"shell-10128655","name":"SHELL NSAWAM NORTH","brand":"shell","country_code":"GH","lat":5.821451,"lng":-0.353554,"address":"Nsawam ","city":"Nsawam","state":"","postcode":"233","country":"Ghana","telephone":"+233 20 024 8949","fuels":["Unleaded 95","Diesel"],"amenities":["Air/Water","Convenience Store","Self Service","Toilets","Full Service","Truck Parking","High Flow Diesel","Brand Loyalty","Parking","Lube Service"],"payments":["Credit Card","Mobile Payment","Pay at Pump","Fleet Card"],"open24Hours":false,"hours":null,"openStatusRaw":"closed","nextStatusChange":"2026-02-01T06:00:00.804Z"},{"id":"shell-10128686","name":"SHELL AGBOGBA-ASHONGMAN ROAD","brand":"shell","country_code":"GH","lat":5.69657,"lng":-0.20376,"address":"Haatso","city":"Haatso","state":"","postcode":"233","country":"Ghana","telephone":"+233 24 499 7627","fuels":["Unleaded 95","Diesel"],"amenities":["Air/Water","Convenience Store","Self Service","Toilets","Full Service","Truck Parking","High Flow Diesel","Brand Loyalty","Parking","Lube Service","Service Bay"],"payments":["Credit Card","Mobile Payment","Pay at Pump","Fleet Card"],"open24Hours":false,"hours":null,"openStatusRaw":"closed","nextStatusChange":"2026-02-01T06:00:00.328Z"},{"id":"shell-10124010","name":"SHELL HAATSO-ATOMIC ROAD","brand":"shell","country_code":"GH","lat":5.672335,"lng":-0.188803,"address":"Haatso agbogba","city":"Haatso agbogba","state":"","postcode":"233","country":"Ghana","telephone":"+233 50 688 4577","fuels":["Unleaded 98","Unleaded 95","Diesel"],"amenities":["Air/Water","Convenience Store","ATM","Service Bay","Fast Food","Food Store","Self Service","Toilets","Full Service","Truck Parking","High Flow Diesel","Brand Loyalty","Parking","Lube Service","Other","Tyres & Batteries"],"payments":["Credit Card","Mobile Payment","Pay at Pump","Fleet Card"],"open24Hours":false,"hours":null,"openStatusRaw":"closed","nextStatusChange":"2026-02-01T06:00:00.369Z"},{"id":"shell-10128566","name":"SHELL TEIMAN ROAD","brand":"shell","country_code":"GH","lat":5.749081,"lng":-0.182964,"address":"Teiman","city":"ACCRA","state":"","postcode":"233","country":"Ghana","telephone":"+233 24 977 3261","fuels":["Premium Diesel","Unleaded 95","Diesel"],"amenities":["Self Service","Toilets","Full Service","Truck Parking","High Flow Diesel","Brand Loyalty","Parking","Lube Service","Service Bay"],"payments":["Credit Card","Mobile Payment","Pay at Pump","Fleet Card"],"open24Hours":false,"hours":null,"openStatusRaw":"closed","nextStatusChange":"2026-02-01T06:00:00.474Z"},{"id":"shell-10128657","name":"SHELL MADINA","brand":"shell","country_code":"GH","lat":5.680069,"lng":-0.172858,"address":"Accra","city":"Accra","state":"","postcode":"233","country":"Ghana","telephone":"+233 50 688 4577","fuels":["Unleaded 95","Diesel"],"amenities":["Convenience Store","Self Service","Toilets","Full Service","Truck Parking","High Flow Diesel","Brand Loyalty","Parking","Lube Service","Service Bay"],"payments":["Credit Card","Mobile Payment","Pay at Pump","Fleet Card"],"open24Hours":false,"hours":null,"openStatusRaw":"closed","nextStatusChange":"2026-02-01T06:00:00.510Z"},{"id":"shell-10128692","name":"SHELL ABOKOBI","brand":"shell","country_code":"GH","lat":5.744649,"lng":-0.178584,"address":"Accra","city":"Accra","state":"","postcode":"233","country":"Ghana","telephone":"+233 24 425 5588","fuels":["Premium Diesel","Unleaded 95","Diesel"],"amenities":["Self Service","Toilets","Full Service","Truck Parking","High Flow Diesel","Convenience Store","Brand Loyalty","Parking","Lube Service","Service Bay"],"payments":["Credit Card","Mobile Payment","Pay at Pump","Fleet Card"],"open24Hours":false,"hours":null,"openStatusRaw":"closed","nextStatusChange":"2026-02-01T06:00:00.527Z"},{"id":"shell-10124001","name":"SHELL ADENTA-ABURI ROAD","brand":"shell","country_code":"GH","lat":5.724805,"lng":-0.172813,"address":"Aburi Road","city":"Aburi Road","state":"","postcode":"233","country":"Ghana","telephone":"+233 20 743 3223","fuels":["Unleaded 98","Unleaded 95","Diesel"],"amenities":["Convenience Store","Self Service","Toilets","Full Service","Truck Parking","High Flow Diesel","Brand Loyalty","Parking","Lube Service","Service Bay"],"payments":["Credit Card","Mobile Payment","Pay at Pump","Fleet Card"],"open24Hours":false,"hours":null,"openStatusRaw":"closed","nextStatusChange":"2026-02-01T06:00:00.544Z"},{"id":"shell-10128714","name":"SHELL ADENTA","brand":"shell","country_code":"GH","lat":5.710418,"lng":-0.170433,"address":"Accra ,Adenta ","city":"Accra ,Adenta","state":"","postcode":"233","country":"Ghana","telephone":"+233 24 437 7636","fuels":["Unleaded 98","Unleaded 95","Diesel"],"amenities":["Air/Water","Convenience Store","ATM","Fast Food","Food Store","Self Service","Toilets","Full Service","Truck Parking","High Flow Diesel","Brand Loyalty","Parking","Lube Service","Service Bay","Other"],"payments":["Credit Card","Mobile Payment","Pay at Pump","Fleet Card"],"open24Hours":false,"hours":null,"openStatusRaw":"closed","nextStatusChange":"2026-02-01T06:00:00.563Z"},{"id":"shell-10128718","name":"Shell Frafraha","brand":"shell","country_code":"GH","lat":5.727143,"lng":-0.159788,"address":"Accra","city":"Accra","state":"","postcode":"233","country":"Ghana","telephone":"+233 24 904 8577","fuels":["Unleaded 95","Diesel"],"amenities":["Air/Water","Disabled Access","Self Service","Toilets","Full Service","Truck Parking","High Flow Diesel","Brand Loyalty","Parking","Lube Service","Service Bay","Convenience Store"],"payments":["Credit Card","Mobile Payment","Pay at Pump","Fleet Card"],"open24Hours":false,"hours":null,"openStatusRaw":"closed","nextStatusChange":"2026-02-01T06:00:00.647Z"},{"id":"shell-10128642","name":"SHELL KETAASE PEDUASE","brand":"shell","country_code":"GH","lat":5.80972,"lng":-0.184177,"address":"Peduase Lodge ","city":"Peduase Lodge","state":"","postcode":"233","country":"Ghana","telephone":"+233 24 271 6508","fuels":["Unleaded 98","Unleaded 95","Diesel"],"amenities":["Air/Water","Convenience Store","Self Service","Toilets","Full Service","Truck Parking","High Flow Diesel","Brand Loyalty","Parking","Lube Service","Service Bay"],"payments":["Credit Card","Mobile Payment","Pay at Pump","Fleet Card"],"open24Hours":false,"hours":null,"openStatusRaw":"closed","nextStatusChange":"2026-02-01T06:00:00.862Z"},{"id":"shell-10128666","name":"SHELL ARMANHIA-DODOWA ROAD","brand":"shell","country_code":"GH","lat":5.75524,"lng":-0.147975,"address":"Amrahia Dodowa","city":"Amrahia Dodowa","state":"","postcode":"233","country":"Ghana","telephone":"+233 24 464 0776","fuels":["Unleaded 98","Premium Diesel","Unleaded 95","Diesel"],"amenities":["Air/Water","Self Service","Toilets","Full Service","Truck Parking","High Flow Diesel","Brand Loyalty","Parking","Lube Service","Service Bay","Convenience Store"],"payments":["Credit Card","Mobile Payment","Pay at Pump","Fleet Card"],"open24Hours":false,"hours":null,"openStatusRaw":"closed","nextStatusChange":"2026-02-01T06:00:00.950Z"},{"id":"shell-10128704","name":"SHELL ADOMI BRIDGE","brand":"shell","country_code":"GH","lat":6.23222,"lng":0.091247,"address":"Atimpoku ","city":"Atimpoku","state":"","postcode":"233","country":"Ghana","telephone":"+233 24 878 8986","fuels":["Unleaded 95","Diesel"],"amenities":["Self Service","Toilets","Full Service","Truck Parking","High Flow Diesel","Brand Loyalty","Parking","Lube Service","Service Bay"],"payments":["Credit Card","Mobile Payment","Pay at Pump","Fleet Card"],"open24Hours":false,"hours":null,"openStatusRaw":"closed","nextStatusChange":"2026-02-01T06:00:00.083Z"},{"id":"shell-10128712","name":"SHELL HO","brand":"shell","country_code":"GH","lat":6.583806,"lng":0.462655,"address":"Ho","city":"Ho","state":"","postcode":"233","country":"Ghana","telephone":"+233 24 478 6812","fuels":["Unleaded 95","Diesel"],"amenities":["Self Service","Toilets","Full Service","Truck Parking","High Flow Diesel","Brand Loyalty","Parking","Lube Service","Service Bay"],"payments":["Credit Card","Mobile Payment","Pay at Pump","Fleet Card"],"open24Hours":false,"hours":null,"openStatusRaw":"closed","nextStatusChange":"2026-02-01T06:00:00.202Z"},{"id":"shell-10124022","name":"SHELL ASIKUMA","brand":"shell","country_code":"GH","lat":6.416378,"lng":0.173353,"address":"Anum Asikuma junction ","city":"Anum Asikuma junction","state":"","postcode":"233","country":"Ghana","telephone":"+233 24 478 6812","fuels":["Unleaded 95","Diesel"],"amenities":["Self Service","Toilets","Full Service","Truck Parking","High Flow Diesel","Brand Loyalty","Parking","Lube Service"],"payments":["Credit Card","Mobile Payment","Pay at Pump","Fleet Card"],"open24Hours":false,"hours":null,"openStatusRaw":"closed","nextStatusChange":"2026-02-01T06:00:00.352Z"},{"id":"shell-10123915","name":"SHELL NTENSERE","brand":"shell","country_code":"GH","lat":6.754163,"lng":-1.764853,"address":"Kumasi Sunyani Rd Ntensere ","city":"Kumasi Sunyani Rd Ntensere","state":"","postcode":"233","country":"Ghana","telephone":"+233 20 555 6787","fuels":["CNG","Unleaded 95","Diesel"],"amenities":["Self Service","Toilets","Full Service","Truck Parking","High Flow Diesel","Brand Loyalty","Parking","Lube Service","Service Bay","Convenience Store"],"payments":["Credit Card","Mobile Payment","Pay at Pump","Fleet Card"],"open24Hours":false,"hours":null,"openStatusRaw":"closed","nextStatusChange":"2026-02-01T06:00:00.178Z"},{"id":"shell-10128708","name":"SHELL DORMAA AHENKRO","brand":"shell","country_code":"GH","lat":7.279209,"lng":-2.871487,"address":"Dorma","city":"Dorma","state":"","postcode":"233","country":"Ghana","telephone":"+233 54 042 0351","fuels":["Unleaded 95","Diesel"],"amenities":["Air/Water","Convenience Store","Self Service","Toilets","Full Service","Truck Parking","High Flow Diesel","Brand Loyalty","Parking","Lube Service","Service Bay"],"payments":["Credit Card","Mobile Payment","Pay at Pump","Fleet Card"],"open24Hours":false,"hours":null,"openStatusRaw":"closed","nextStatusChange":"2026-02-01T06:00:00.390Z"},{"id":"shell-10128608","name":"SHELL KWADASO SDA","brand":"shell","country_code":"GH","lat":6.698343,"lng":-1.661412,"address":"Kumasi","city":"Kumasi","state":"","postcode":"233","country":"Ghana","telephone":"+233 54 750 8661","fuels":["Unleaded 95","Diesel"],"amenities":["Self Service","Toilets","Full Service","Truck Parking","High Flow Diesel","Brand Loyalty","Parking","Lube Service","Service Bay"],"payments":["Credit Card","Mobile Payment","Pay at Pump","Fleet Card"],"open24Hours":false,"hours":null,"openStatusRaw":"closed","nextStatusChange":"2026-02-01T06:00:00.407Z"},{"id":"shell-10128616","name":"SHELL KWADASO","brand":"shell","country_code":"GH","lat":6.695152,"lng":-1.654719,"address":"Kumasi","city":"Kumasi","state":"","postcode":"233","country":"Ghana","telephone":"+233 24 401 0489","fuels":["Unleaded 95","Diesel"],"amenities":["Air/Water","Convenience Store","ATM","Self Service","Toilets","Full Service","Truck Parking","High Flow Diesel","Brand Loyalty","Parking","Lube Service","Service Bay"],"payments":["Credit Card","Mobile Payment","Pay at Pump","Fleet Card"],"open24Hours":false,"hours":null,"openStatusRaw":"closed","nextStatusChange":"2026-02-01T06:00:00.425Z"},{"id":"shell-10128592","name":"SHELL SUNYANI BEKWAI ROUNDABOUT","brand":"shell","country_code":"GH","lat":6.693894,"lng":-1.640705,"address":"Sunyani","city":"Sunyani","state":"","postcode":"233","country":"Ghana","telephone":"+233 24 426 8358","fuels":["Unleaded 98","Unleaded 95","Diesel"],"amenities":["Convenience Store","ATM","Fast Food","Food Store","Self Service","Toilets","Full Service","Truck Parking","High Flow Diesel","Brand Loyalty","Parking","Lube Service","Service Bay","Other"],"payments":["Credit Card","Mobile Payment","Pay at Pump","Fleet Card"],"open24Hours":false,"hours":null,"openStatusRaw":"closed","nextStatusChange":"2026-02-01T06:00:00.265Z"},{"id":"shell-10128581","name":"SHELL WESTERN BYPASS","brand":"shell","country_code":"GH","lat":6.707421,"lng":-1.637921,"address":"Kumasi","city":"Kumasi","state":"","postcode":"233","country":"Ghana","telephone":"+233 24 461 3601","fuels":["Unleaded 98","Unleaded 95","Diesel"],"amenities":["Air/Water","Convenience Store","Self Service","Toilets","Full Service","Truck Parking","High Flow Diesel","Brand Loyalty","Parking","Lube Service"],"payments":["Credit Card","Mobile Payment","Pay at Pump","Fleet Card"],"open24Hours":false,"hours":null,"openStatusRaw":"closed","nextStatusChange":"2026-02-01T06:00:00.323Z"},{"id":"shell-10128684","name":"SHELL ABREPO JUNCTION","brand":"shell","country_code":"GH","lat":6.708005,"lng":-1.63837,"address":"Kumasi","city":"Kumasi","state":"","postcode":"233","country":"Ghana","telephone":"+233 54 061 9646","fuels":["Unleaded 95","Diesel"],"amenities":["Convenience Store","ATM","Self Service","Toilets","Full Service","Truck Parking","High Flow Diesel","Brand Loyalty","Parking","Lube Service","Service Bay"],"payments":["Credit Card","Mobile Payment","Pay at Pump","Fleet Card"],"open24Hours":false,"hours":null,"openStatusRaw":"closed","nextStatusChange":"2026-02-01T06:00:00.343Z"},{"id":"shell-10128635","name":"SHELL MAMPONG ROAD","brand":"shell","country_code":"GH","lat":6.710522,"lng":-1.627949,"address":"Kumasi, Suame Roundabout ","city":"Kumasi, Suame Roundabout","state":"","postcode":"233","country":"Ghana","telephone":"+233 54 061 9646","fuels":["Unleaded 95","Diesel"],"amenities":["Air/Water","Self Service","Toilets","Full Service","Truck Parking","High Flow Diesel","Brand Loyalty","Parking","Lube Service","Service Bay","Convenience Store"],"payments":["Credit Card","Mobile Payment","Pay at Pump","Fleet Card"],"open24Hours":false,"hours":null,"openStatusRaw":"closed","nextStatusChange":"2026-02-01T06:00:00.423Z"},{"id":"shell-10128585","name":"SHELL MBROM","brand":"shell","country_code":"GH","lat":6.705938,"lng":-1.623682,"address":"ASHTOWN KUMASI","city":"ASHTOWN KUMASI","state":"","postcode":"233","country":"Ghana","telephone":"+233 50 456 0486","fuels":["Unleaded 95","Diesel"],"amenities":["Air/Water","Convenience Store","Self Service","Toilets","Full Service","Truck Parking","High Flow Diesel","Brand Loyalty","Parking","Lube Service","Service Bay"],"payments":["Credit Card","Mobile Payment","Pay at Pump","Fleet Card"],"open24Hours":false,"hours":null,"openStatusRaw":"closed","nextStatusChange":"2026-02-01T06:00:00.442Z"},{"id":"shell-10128611","name":"SHELL SUAME","brand":"shell","country_code":"GH","lat":6.716364,"lng":-1.630375,"address":"New Suame - Kumasi","city":"New Suame - Kumasi","state":"","postcode":"233","country":"Ghana","telephone":"+233 24 391 1000","fuels":["Unleaded 95","Diesel"],"amenities":["Air/Water","Convenience Store","Self Service","Toilets","Full Service","Truck Parking","High Flow Diesel","Brand Loyalty","Parking","Lube Service","Service Bay"],"payments":["Credit Card","Mobile Payment","Pay at Pump","Fleet Card"],"open24Hours":false,"hours":null,"openStatusRaw":"closed","nextStatusChange":"2026-02-01T06:00:00.480Z"},{"id":"shell-10128713","name":"SHELL BURMA ROAD","brand":"shell","country_code":"GH","lat":6.699377,"lng":-1.612094,"address":"Kumasi","city":"Kumasi","state":"","postcode":"233","country":"Ghana","telephone":"+233 50 456 0486","fuels":["Unleaded 95","Diesel"],"amenities":["Air/Water","Service Bay","Self Service","Toilets","Full Service","Truck Parking","High Flow Diesel","Brand Loyalty","Parking","Lube Service","Convenience Store","Tyres & Batteries"],"payments":["Credit Card","Mobile Payment","Pay at Pump","Fleet Card"],"open24Hours":false,"hours":null,"openStatusRaw":"closed","nextStatusChange":"2026-02-01T06:00:00.539Z"},{"id":"shell-10123868","name":"SHELL KROFROM","brand":"shell","country_code":"GH","lat":6.714117,"lng":-1.612094,"address":"Kumasi","city":"Kumasi","state":"","postcode":"233","country":"Ghana","telephone":"+233 54 750 8661","fuels":["CNG","Unleaded 95","Diesel"],"amenities":["Self Service","Toilets","Full Service","Truck Parking","High Flow Diesel","Brand Loyalty","Parking","Lube Service","Service Bay","Convenience Store"],"payments":["Credit Card","Mobile Payment","Pay at Pump","Fleet Card"],"open24Hours":false,"hours":null,"openStatusRaw":"closed","nextStatusChange":"2026-02-01T06:00:00.487Z"},{"id":"shell-10128726","name":"SHELL DICHEMSO","brand":"shell","country_code":"GH","lat":6.712544,"lng":-1.601404,"address":"Kumasi","city":"Kumasi","state":"","postcode":"233","country":"Ghana","telephone":"+233 54 750 8661","fuels":["Unleaded 95","Diesel"],"amenities":["Air/Water","Self Service","Toilets","Full Service","Truck Parking","High Flow Diesel","Brand Loyalty","Parking","Lube Service","Convenience Store"],"payments":["Credit Card","Mobile Payment","Pay at Pump","Fleet Card"],"open24Hours":false,"hours":null,"openStatusRaw":"closed","nextStatusChange":"2026-02-01T06:00:00.506Z"},{"id":"shell-10128732","name":"SHELL AIRPORT ROUNDABOUT","brand":"shell","country_code":"GH","lat":6.714072,"lng":-1.599473,"address":"Kumasi","city":"Kumasi","state":"","postcode":"233","country":"Ghana","telephone":"+233 24 461 3601","fuels":["Unleaded 98","Unleaded 95","Diesel"],"amenities":["Air/Water","Convenience Store","Self Service","Toilets","Full Service","Truck Parking","High Flow Diesel","Brand Loyalty","Parking","Lube Service","Service Bay"],"payments":["Credit Card","Mobile Payment","Pay at Pump","Fleet Card"],"open24Hours":false,"hours":null,"openStatusRaw":"closed","nextStatusChange":"2026-02-01T06:00:00.546Z"},{"id":"shell-10128584","name":"SHELL KUMASI MAAKRO","brand":"shell","country_code":"GH","lat":6.730162,"lng":-1.628264,"address":"Kumasi","city":"Kumasi","state":"","postcode":"233","country":"Ghana","telephone":"+233 54 750 8661","fuels":["Unleaded 95","Diesel"],"amenities":["Air/Water","Self Service","Toilets","Full Service","Truck Parking","High Flow Diesel","Brand Loyalty","Parking","Lube Service","Service Bay","Convenience Store"],"payments":["Credit Card","Mobile Payment","Pay at Pump","Fleet Card"],"open24Hours":false,"hours":null,"openStatusRaw":"closed","nextStatusChange":"2026-02-01T06:00:00.565Z"},{"id":"shell-10128721","name":"SHELL BREMANG","brand":"shell","country_code":"GH","lat":6.741533,"lng":-1.638504,"address":"Kumasi","city":"Kumasi","state":"","postcode":"233","country":"Ghana","telephone":"+233 54 750 8661","fuels":["Unleaded 95","Diesel"],"amenities":["Air/Water","Self Service","Toilets","Full Service","Truck Parking","High Flow Diesel","Brand Loyalty","Parking","Lube Service","Service Bay","Convenience Store"],"payments":["Credit Card","Mobile Payment","Pay at Pump","Fleet Card"],"open24Hours":false,"hours":null,"openStatusRaw":"closed","nextStatusChange":"2026-02-01T06:00:00.585Z"},{"id":"shell-10123953","name":"SHELL FUMESUA","brand":"shell","country_code":"GH","lat":6.712499,"lng":-1.518984,"address":"Kumasi","city":"Kumasi","state":"","postcode":"233","country":"Ghana","telephone":"+233 54 534 7198","fuels":["CNG","Unleaded 98","Unleaded 95","Diesel"],"amenities":["Self Service","Toilets","Full Service","Truck Parking","High Flow Diesel","Brand Loyalty","Parking","Lube Service","Service Bay","Convenience Store"],"payments":["Credit Card","Mobile Payment","Pay at Pump","Fleet Card"],"open24Hours":false,"hours":null,"openStatusRaw":"closed","nextStatusChange":"2026-02-01T06:00:00.875Z"},{"id":"shell-10128682","name":"SHELL EJISU","brand":"shell","country_code":"GH","lat":6.719151,"lng":-1.485117,"address":"Kumasi ","city":"Kumasi","state":"","postcode":"233","country":"Ghana","telephone":"+233 24 463 4649","fuels":["Unleaded 95","Diesel"],"amenities":["Convenience Store","ATM","Self Service","Toilets","Full Service","Truck Parking","High Flow Diesel","Brand Loyalty","Parking","Lube Service","Tyres & Batteries"],"payments":["Credit Card","Mobile Payment","Pay at Pump","Fleet Card"],"open24Hours":false,"hours":null,"openStatusRaw":"closed","nextStatusChange":"2026-02-01T06:00:00.929Z"},{"id":"shell-10128670","name":"SHELL EJISU-KRAPPA","brand":"shell","country_code":"GH","lat":6.720185,"lng":-1.483949,"address":"Kumasi","city":"Kumasi","state":"","postcode":"233","country":"Ghana","telephone":"+233 24 914 1130","fuels":["Unleaded 95","Diesel"],"amenities":["Service Bay","Self Service","Toilets","Full Service","Truck Parking","High Flow Diesel","Brand Loyalty","Parking","Lube Service"],"payments":["Credit Card","Mobile Payment","Pay at Pump","Fleet Card"],"open24Hours":false,"hours":null,"openStatusRaw":"closed","nextStatusChange":"2026-02-01T06:00:00.983Z"},{"id":"shell-10128606","name":"SHELL OLD TAFO","brand":"shell","country_code":"GH","lat":6.73996,"lng":-1.611241,"address":"Kumasi ","city":"Kumasi","state":"","postcode":"233","country":"Ghana","telephone":"+233 54 226 1813","fuels":["Unleaded 95","Diesel"],"amenities":["Air/Water","Self Service","Toilets","Full Service","Truck Parking","High Flow Diesel","Brand Loyalty","Parking","Lube Service","Service Bay","Convenience Store"],"payments":["Credit Card","Mobile Payment","Pay at Pump","Fleet Card"],"open24Hours":false,"hours":null,"openStatusRaw":"closed","nextStatusChange":"2026-02-01T06:00:00.222Z"},{"id":"shell-10128644","name":"SHELL TAFO PANKRONO","brand":"shell","country_code":"GH","lat":6.743465,"lng":-1.611061,"address":"Kumasi pankrono ","city":"Kumasi pankrono","state":"","postcode":"233","country":"Ghana","telephone":"+233 54 226 1813","fuels":["Unleaded 95","Diesel"],"amenities":["Air/Water","Self Service","Toilets","Full Service","Truck Parking","High Flow Diesel","Brand Loyalty","Parking","Lube Service","Service Bay","Convenience Store"],"payments":["Credit Card","Mobile Payment","Pay at Pump","Fleet Card"],"open24Hours":false,"hours":null,"openStatusRaw":"closed","nextStatusChange":"2026-02-01T06:00:00.258Z"},{"id":"shell-10128589","name":"SHELL NKAWKAW-ASONA ROAD","brand":"shell","country_code":"GH","lat":6.595173,"lng":-0.836399,"address":"Nkawkaw Asona by pass","city":"Nkawkaw Asona by pass","state":"","postcode":"233","country":"Ghana","telephone":"+233 20 811 1323","fuels":["Unleaded 95","Diesel"],"amenities":["Air/Water","Self Service","Toilets","Full Service","Truck Parking","High Flow Diesel","Brand Loyalty","Parking","Lube Service","Service Bay","Convenience Store"],"payments":["Credit Card","Mobile Payment","Pay at Pump","Fleet Card"],"open24Hours":false,"hours":null,"openStatusRaw":"closed","nextStatusChange":"2026-02-01T06:00:00.273Z"},{"id":"shell-10128599","name":"SHELL NKAWKAW","brand":"shell","country_code":"GH","lat":6.552626,"lng":-0.767588,"address":"Nkawkaw town center ","city":"Nkawkaw town center","state":"","postcode":"233","country":"Ghana","telephone":"+233 20 811 1323","fuels":["Unleaded 95","Diesel"],"amenities":["Air/Water","Convenience Store","Self Service","Toilets","Full Service","Truck Parking","High Flow Diesel","Brand Loyalty","Parking","Lube Service","Service Bay"],"payments":["Credit Card","Mobile Payment","Pay at Pump","Fleet Card"],"open24Hours":false,"hours":null,"openStatusRaw":"closed","nextStatusChange":"2026-02-01T06:00:00.295Z"},{"id":"shell-10128645","name":"SHELL NSUTAM","brand":"shell","country_code":"GH","lat":6.308128,"lng":-0.473524,"address":"EF 1842-5708","city":"EF 1842-5708","state":"","postcode":"233","country":"Ghana","telephone":"+233(0)342295468","fuels":["Unleaded 95","Diesel"],"amenities":["Disabled Access","Self Service","Toilets","Full Service","Truck Parking","High Flow Diesel","Brand Loyalty","Parking","Lube Service"],"payments":["Credit Card","Mobile Payment","Pay at Pump","Fleet Card"],"open24Hours":false,"hours":null,"openStatusRaw":"closed","nextStatusChange":"2026-02-01T06:00:00.422Z"},{"id":"shell-10128661","name":"SHELL KOFORIDUA HIGHWAY","brand":"shell","country_code":"GH","lat":6.10645,"lng":-0.279668,"address":"Koforidua","city":"Koforidua","state":"","postcode":"233","country":"Ghana","telephone":"+233 24 681 4702","fuels":["Unleaded 95","Diesel"],"amenities":["Self Service","Toilets","Full Service","Truck Parking","High Flow Diesel","Brand Loyalty","Parking","Lube Service","Service Bay"],"payments":["Credit Card","Mobile Payment","Pay at Pump","Fleet Card"],"open24Hours":false,"hours":null,"openStatusRaw":"closed","nextStatusChange":"2026-02-01T06:00:00.048Z"},{"id":"shell-10128650","name":"SHELL KOFORIDUA NORTH","brand":"shell","country_code":"GH","lat":6.100925,"lng":-0.264711,"address":"Koforidua","city":"Koforidua","state":"","postcode":"233","country":"Ghana","telephone":"+233 54 624 9217","fuels":["Unleaded 95","Diesel"],"amenities":["Convenience Store","Self Service","Toilets","Full Service","Truck Parking","High Flow Diesel","Brand Loyalty","Parking","Lube Service","Service Bay","Tyres & Batteries"],"payments":["Credit Card","Mobile Payment","Pay at Pump","Fleet Card"],"open24Hours":false,"hours":null,"openStatusRaw":"closed","nextStatusChange":"2026-02-01T06:00:00.066Z"},{"id":"shell-10128628","name":"SHELL KOFORIDUA TOWN CENTRE","brand":"shell","country_code":"GH","lat":6.094681,"lng":-0.260085,"address":"Koforidua","city":"Koforidua","state":"","postcode":"233","country":"Ghana","telephone":"+233 24 753 1944","fuels":["Unleaded 95","Diesel"],"amenities":["Air/Water","Convenience Store","ATM","Disabled Access","Fast Food","Food Store","Self Service","Toilets","Full Service","Truck Parking","High Flow Diesel","Brand Loyalty","Parking","Lube Service","Service Bay"],"payments":["Credit Card","Mobile Payment","Pay at Pump","Fleet Card"],"open24Hours":false,"hours":null,"openStatusRaw":"closed","nextStatusChange":"2026-02-01T06:00:00.084Z"},{"id":"shell-10128639","name":"SHELL KOFORIDUA SOUTH","brand":"shell","country_code":"GH","lat":6.088976,"lng":-0.255773,"address":"Koforidua","city":"Koforidua","state":"","postcode":"233","country":"Ghana","telephone":"+233 24 753 1944","fuels":["Unleaded 98","Premium Diesel","Unleaded 95","Diesel"],"amenities":["Convenience Store","Self Service","Toilets","Full Service","Truck Parking","High Flow Diesel","Brand Loyalty","Parking","Lube Service","Service Bay"],"payments":["Credit Card","Mobile Payment","Pay at Pump","Fleet Card"],"open24Hours":false,"hours":null,"openStatusRaw":"closed","nextStatusChange":"2026-02-01T06:00:00.102Z"},{"id":"shell-10128591","name":"SHELL KPANDU","brand":"shell","country_code":"GH","lat":6.995252,"lng":0.292694,"address":"Volta Kpando","city":"Volta Kpando","state":"","postcode":"233","country":"Ghana","telephone":"+233 24 483 8573","fuels":["Unleaded 95","Diesel"],"amenities":["Self Service","Toilets","Full Service","Truck Parking","High Flow Diesel","Brand Loyalty","Parking","Lube Service","Service Bay"],"payments":["Credit Card","Mobile Payment","Pay at Pump","Fleet Card"],"open24Hours":false,"hours":null,"openStatusRaw":"closed","nextStatusChange":"2026-02-01T06:00:00.488Z"},{"id":"shell-10128696","name":"SHELL HOHOE EAST","brand":"shell","country_code":"GH","lat":7.150698,"lng":0.471683,"address":"Hohoe","city":"Hohoe","state":"","postcode":"233","country":"Ghana","telephone":"+233 24 478 6812","fuels":["Unleaded 95","Diesel"],"amenities":["Self Service","Toilets","Full Service","Truck Parking","High Flow Diesel","Brand Loyalty","Parking","Lube Service","Service Bay"],"payments":["Credit Card","Mobile Payment","Pay at Pump","Fleet Card"],"open24Hours":false,"hours":null,"openStatusRaw":"closed","nextStatusChange":"2026-02-01T06:00:00.853Z"},{"id":"shell-10128705","name":"SHELL HOHOE","brand":"shell","country_code":"GH","lat":7.150878,"lng":0.471189,"address":"Hohoe","city":"Hohoe","state":"","postcode":"233","country":"Ghana","telephone":"+233 24 478 6812","fuels":["Unleaded 95","Diesel"],"amenities":["ATM","Self Service","Toilets","Full Service","Truck Parking","High Flow Diesel","Brand Loyalty","Parking","Lube Service","Service Bay"],"payments":["Credit Card","Mobile Payment","Pay at Pump","Fleet Card"],"open24Hours":false,"hours":null,"openStatusRaw":"closed","nextStatusChange":"2026-02-01T06:00:00.163Z"},{"id":"shell-10123858","name":"SHELL SUNYANI","brand":"shell","country_code":"GH","lat":7.326621,"lng":-2.319517,"address":"Sunyani","city":"Sunyani","state":"","postcode":"233","country":"Ghana","telephone":"+233 54 042 0351","fuels":["CNG","Unleaded 95","Diesel"],"amenities":["Convenience Store","Car Wash","Service Bay","Self Service","Toilets","Full Service","Truck Parking","High Flow Diesel","Brand Loyalty","Hand Wash","Parking","Lube Service"],"payments":["Credit Card","Mobile Payment","Pay at Pump","Fleet Card"],"open24Hours":false,"hours":null,"openStatusRaw":"closed","nextStatusChange":"2026-02-01T06:00:00.801Z"},{"id":"shell-10128580","name":"SHELL SUNYANI TYCO","brand":"shell","country_code":"GH","lat":7.30942,"lng":-2.301281,"address":"Sunyani Abesim ","city":"Sunyani Abesim","state":"","postcode":"233","country":"Ghana","telephone":"+233 24 489 2364","fuels":["Unleaded 95","Diesel"],"amenities":["Air/Water","Self Service","Toilets","Full Service","Truck Parking","High Flow Diesel","Brand Loyalty","Parking","Lube Service","Service Bay","Convenience Store"],"payments":["Credit Card","Mobile Payment","Pay at Pump","Fleet Card"],"open24Hours":false,"hours":null,"openStatusRaw":"closed","nextStatusChange":"2026-02-01T06:00:00.823Z"},{"id":"shell-10123866","name":"SHELL DUMASUA-SUNYANI","brand":"shell","country_code":"GH","lat":7.380659,"lng":-2.357785,"address":"Sunyani","city":"Sunyani","state":"","postcode":"233","country":"Ghana","telephone":"+233 54 433 7199","fuels":["CNG","Unleaded 95","Diesel"],"amenities":["Self Service","Toilets","Full Service","Truck Parking","High Flow Diesel","Brand Loyalty","Parking","Lube Service","Service Bay","Convenience Store"],"payments":["Credit Card","Mobile Payment","Pay at Pump","Fleet Card"],"open24Hours":false,"hours":null,"openStatusRaw":"closed","nextStatusChange":"2026-02-01T06:00:00.868Z"},{"id":"shell-10128569","name":"SHELL KUMASI OFFINSO ROAD","brand":"shell","country_code":"GH","lat":6.766208,"lng":-1.644254,"address":"Kumasi","city":"Kumasi","state":"","postcode":"233","country":"Ghana","telephone":"+233 24 461 3601","fuels":["Unleaded 98","Unleaded 95","Diesel"],"amenities":["Air/Water","Convenience Store","Self Service","Toilets","Full Service","Truck Parking","High Flow Diesel","Brand Loyalty","Parking","Lube Service","Service Bay"],"payments":["Credit Card","Mobile Payment","Pay at Pump","Fleet Card"],"open24Hours":false,"hours":null,"openStatusRaw":"closed","nextStatusChange":"2026-02-01T06:00:00.112Z"},{"id":"shell-10128698","name":"SHELL AKOM WEIGHBRIDGE ROAD","brand":"shell","country_code":"GH","lat":6.859083,"lng":-1.645556,"address":"Kumasi","city":"Kumasi","state":"","postcode":"233","country":"Ghana","telephone":"+233 20 404 1137","fuels":["Unleaded 95","Diesel"],"amenities":["Air/Water","Self Service","Toilets","Full Service","Truck Parking","High Flow Diesel","Brand Loyalty","Parking","Lube Service","Service Bay","Convenience Store"],"payments":["Credit Card","Mobile Payment","Pay at Pump","Fleet Card"],"open24Hours":false,"hours":null,"openStatusRaw":"closed","nextStatusChange":"2026-02-01T06:00:00.040Z"},{"id":"shell-10128653","name":"SHELL TAFO MEDUMA","brand":"shell","country_code":"GH","lat":6.770613,"lng":-1.593768,"address":"Tafo Meduma ","city":"Tafo Meduma","state":"","postcode":"233","country":"Ghana","telephone":"+233 24 485 5152","fuels":["Unleaded 95","Diesel"],"amenities":["Air/Water","Convenience Store","Self Service","Toilets","Full Service","Truck Parking","High Flow Diesel","Brand Loyalty","Parking","Lube Service","Service Bay","Tyres & Batteries"],"payments":["Credit Card","Mobile Payment","Pay at Pump","Fleet Card"],"open24Hours":false,"hours":null,"openStatusRaw":"closed","nextStatusChange":"2026-02-01T06:00:00.794Z"},{"id":"shell-10128565","name":"SHELL OFFINSO AHENKRO","brand":"shell","country_code":"GH","lat":6.887185,"lng":-1.646904,"address":"Kumasiy Offinso Ahenkro","city":"Kumasiy Offinso Ahenkro","state":"","postcode":"233","country":"Ghana","telephone":"+233 24 461 3601","fuels":["Unleaded 95","Diesel"],"amenities":["Air/Water","Self Service","Toilets","Full Service","Truck Parking","High Flow Diesel","Brand Loyalty","Parking","Lube Service","Service Bay","Convenience Store"],"payments":["Credit Card","Mobile Payment","Pay at Pump","Fleet Card"],"open24Hours":false,"hours":null,"openStatusRaw":"closed","nextStatusChange":"2026-02-01T06:00:00.876Z"},{"id":"shell-10128695","name":"SHELL ABOASO MAMPONG ROAD","brand":"shell","country_code":"GH","lat":6.816869,"lng":-1.527787,"address":"Aboaso","city":"Aboaso","state":"","postcode":"233","country":"Ghana","telephone":"+233 24 458 5678","fuels":["Unleaded 95","Diesel"],"amenities":["Self Service","Toilets","Full Service","Truck Parking","High Flow Diesel","Brand Loyalty","Parking","Lube Service","Service Bay","Convenience Store","Tyres & Batteries"],"payments":["Credit Card","Mobile Payment","Pay at Pump","Fleet Card"],"open24Hours":false,"hours":null,"openStatusRaw":"closed","nextStatusChange":"2026-02-01T06:00:00.858Z"},{"id":"shell-10123850","name":"SHELL MAMPONG","brand":"shell","country_code":"GH","lat":7.05931,"lng":-1.400136,"address":"Ashanti, Mampong","city":"Ashanti, Mampong","state":"","postcode":"233","country":"Ghana","telephone":"+233 20 823 6068","fuels":["Unleaded 95","Diesel"],"amenities":["Self Service","Toilets","Full Service","Truck Parking","High Flow Diesel","Convenience Store","Brand Loyalty","Parking","Lube Service","Service Bay"],"payments":["Credit Card","Mobile Payment","Pay at Pump","Fleet Card"],"open24Hours":false,"hours":null,"openStatusRaw":"closed","nextStatusChange":"2026-02-01T06:00:00.947Z"},{"id":"shell-10124048","name":"SHELL AKOMADAN","brand":"shell","country_code":"GH","lat":7.380073,"lng":-1.921564,"address":"Akomadan ","city":"Akomadan","state":"","postcode":"233","country":"Ghana","telephone":"+233 54 555 4340","fuels":["Premium Diesel","Unleaded 95","Diesel"],"amenities":["Car Wash","Self Service","Toilets","Full Service","Truck Parking","High Flow Diesel","Brand Loyalty","Parking","Lube Service","Service Bay","Convenience Store"],"payments":["Credit Card","Mobile Payment","Pay at Pump","Fleet Card"],"open24Hours":false,"hours":null,"openStatusRaw":"closed","nextStatusChange":"2026-02-01T06:00:00.062Z"},{"id":"shell-10123799","name":"SHELL TECHIMAN-HANSUA","brand":"shell","country_code":"GH","lat":7.552685,"lng":-1.937509,"address":"TECHIMAN ","city":"TECHIMAN","state":"","postcode":"233","country":"Ghana","telephone":"+233 24 469 5989","fuels":["Unleaded 95","Diesel"],"amenities":["Toilets","Self Service","Full Service","Truck Parking","High Flow Diesel","Brand Loyalty","Parking","Lube Service","Service Bay"],"payments":["Credit Card","Mobile Payment","Pay at Pump","Fleet Card"],"open24Hours":false,"hours":null,"openStatusRaw":"closed","nextStatusChange":"2026-02-01T06:00:00.081Z"},{"id":"shell-10128593","name":"SHELL TECHIMAN","brand":"shell","country_code":"GH","lat":7.590531,"lng":-1.939126,"address":"Techiman zongo round about ","city":"Techiman zongo round about","state":"","postcode":"233","country":"Ghana","telephone":"+233 24 200 2133","fuels":["Unleaded 95","Diesel"],"amenities":["Air/Water","Convenience Store","Disabled Access","Self Service","Toilets","Full Service","Truck Parking","High Flow Diesel","Brand Loyalty","Parking","Lube Service","Service Bay"],"payments":["Credit Card","Mobile Payment","Pay at Pump","Fleet Card"],"open24Hours":false,"hours":null,"openStatusRaw":"closed","nextStatusChange":"2026-02-01T06:00:00.145Z"},{"id":"shell-10123859","name":"SHELL TECHIMAN-TEKO","brand":"shell","country_code":"GH","lat":7.595397,"lng":-1.935173,"address":"TECHIMAN ","city":"TECHIMAN","state":"","postcode":"233","country":"Ghana","telephone":"+233 24 469 5989","fuels":["Unleaded 95","Diesel"],"amenities":["Toilets","Self Service","Full Service","Truck Parking","High Flow Diesel","Brand Loyalty","Parking","Lube Service","Convenience Store"],"payments":["Credit Card","Mobile Payment","Pay at Pump","Fleet Card"],"open24Hours":false,"hours":null,"openStatusRaw":"closed","nextStatusChange":"2026-02-01T06:00:00.166Z"},{"id":"shell-10123813","name":"SHELL TUTUASE-OFFINSO ROAD","brand":"shell","country_code":"GH","lat":6.918122,"lng":-1.669047,"address":"Offinso oldtown ","city":"Offinso oldtown","state":"","postcode":"233","country":"Ghana","telephone":"+233 24 434 4346","fuels":["CNG","Unleaded 95","Diesel"],"amenities":["Self Service","Toilets","Full Service","Truck Parking","High Flow Diesel","Brand Loyalty","Parking","Lube Service","Convenience Store"],"payments":["Credit Card","Mobile Payment","Pay at Pump","Fleet Card"],"open24Hours":false,"hours":null,"openStatusRaw":"closed","nextStatusChange":"2026-02-01T06:00:00.250Z"},{"id":"shell-10128662","name":"SHELL EJURA","brand":"shell","country_code":"GH","lat":7.379938,"lng":-1.359173,"address":"Ejura Market","city":"Ejura Market","state":"","postcode":"233","country":"Ghana","telephone":"+233 24 697 9280","fuels":["Unleaded 95","Diesel"],"amenities":["Air/Water","Self Service","Toilets","Full Service","Truck Parking","High Flow Diesel","Brand Loyalty","Parking","Lube Service","Service Bay","Convenience Store"],"payments":["Credit Card","Mobile Payment","Pay at Pump","Fleet Card"],"open24Hours":false,"hours":null,"openStatusRaw":"closed","nextStatusChange":"2026-02-01T06:00:00.952Z"},{"id":"shell-10128632","name":"SHELL KINTAMPO","brand":"shell","country_code":"GH","lat":8.05478,"lng":-1.726,"address":"Kintampo sawaba","city":"Kintampo sawaba","state":"","postcode":"233","country":"Ghana","telephone":"+233 20 203 0197","fuels":["Unleaded 95","Diesel"],"amenities":["Air/Water","Convenience Store","Self Service","Toilets","Full Service","Truck Parking","High Flow Diesel","Brand Loyalty","Parking","Lube Service","Service Bay"],"payments":["Credit Card","Mobile Payment","Pay at Pump","Fleet Card"],"open24Hours":false,"hours":null,"openStatusRaw":"closed","nextStatusChange":"2026-02-01T06:00:00.862Z"},{"id":"shell-10128575","name":"SHELL SALAGA ROAD","brand":"shell","country_code":"GH","lat":8.856008,"lng":0.046466,"address":"Tamale Chanli ","city":"Tamale Chanli","state":"","postcode":"233","country":"Ghana","telephone":"+233 20 203 0197","fuels":["Unleaded 95","Diesel"],"amenities":["Air/Water","Convenience Store","Disabled Access","Fast Food","Food Store","Self Service","Toilets","Full Service","Truck Parking","High Flow Diesel","Brand Loyalty","Parking","Lube Service","Service Bay"],"payments":["Credit Card","Mobile Payment","Pay at Pump","Fleet Card"],"open24Hours":false,"hours":null,"openStatusRaw":"closed","nextStatusChange":"2026-02-01T06:00:00.094Z"},{"id":"shell-10123829","name":"SHELL TAMALE YAPEI BARRIER","brand":"shell","country_code":"GH","lat":9.342143,"lng":-0.911588,"address":"Tamale ","city":"Tamale","state":"","postcode":"233","country":"Ghana","telephone":"+233 24 479 0318","fuels":["Unleaded 95","Diesel"],"amenities":["Self Service","Toilets","Full Service","Truck Parking","High Flow Diesel","Local Community","Brand Loyalty","Parking","Lube Service","Service Bay"],"payments":["Credit Card","Mobile Payment","Pay at Pump","Fleet Card"],"open24Hours":false,"hours":null,"openStatusRaw":"closed","nextStatusChange":"2026-02-01T06:00:00.298Z"},{"id":"shell-10123821","name":"SHELL YAPEI ROAD","brand":"shell","country_code":"GH","lat":9.386385,"lng":-0.857913,"address":"Temale","city":"Temale","state":"","postcode":"233","country":"Ghana","telephone":"+233 24 396 5193","fuels":["Unleaded 95","Diesel"],"amenities":["Convenience Store","Disabled Access","Self Service","Toilets","Full Service","Truck Parking","High Flow Diesel","Local Community","Brand Loyalty","Parking","Lube Service","Service Bay"],"payments":["Credit Card","Mobile Payment","Pay at Pump","Fleet Card"],"open24Hours":false,"hours":null,"openStatusRaw":"closed","nextStatusChange":"2026-02-01T06:00:00.428Z"},{"id":"shell-10128676","name":"SHELL KALADAN","brand":"shell","country_code":"GH","lat":9.396716,"lng":-0.850098,"address":"Tamale","city":"Tamale","state":"","postcode":"233","country":"Ghana","telephone":"+233 24 479 0318","fuels":["Unleaded 95","Diesel"],"amenities":["Air/Water","Self Service","Toilets","Full Service","Truck Parking","High Flow Diesel","Brand Loyalty","Parking","Lube Service","Service Bay","Convenience Store"],"payments":["Credit Card","Mobile Payment","Pay at Pump","Fleet Card"],"open24Hours":false,"hours":null,"openStatusRaw":"closed","nextStatusChange":"2026-02-01T06:00:00.482Z"},{"id":"shell-10128664","name":"SHELL DABOYA ROAD","brand":"shell","country_code":"GH","lat":9.404621,"lng":-0.850682,"address":"Daboya ","city":"Daboya","state":"","postcode":"233","country":"Ghana","telephone":"+233 24 479 0318","fuels":["Premium Diesel","Unleaded 95","Diesel"],"amenities":["Air/Water","Convenience Store","Self Service","Toilets","Full Service","Truck Parking","High Flow Diesel","Brand Loyalty","Parking","Lube Service","Service Bay"],"payments":["Credit Card","Mobile Payment","Pay at Pump","Fleet Card"],"open24Hours":false,"hours":null,"openStatusRaw":"closed","nextStatusChange":"2026-02-01T06:00:00.534Z"},{"id":"shell-10128641","name":"SHELL SAVELUGU ROAD","brand":"shell","country_code":"GH","lat":9.414233,"lng":-0.843091,"address":"Tamale/Sakasaka","city":"Tamale/Sakasaka","state":"","postcode":"233","country":"Ghana","telephone":"+233 20 203 0197","fuels":["Unleaded 95","Diesel"],"amenities":["Air/Water","Convenience Store","Self Service","Toilets","Full Service","Truck Parking","High Flow Diesel","Brand Loyalty","Parking","Lube Service","Service Bay"],"payments":["Credit Card","Mobile Payment","Pay at Pump","Fleet Card"],"open24Hours":false,"hours":null,"openStatusRaw":"closed","nextStatusChange":"2026-02-01T06:00:00.653Z"},{"id":"shell-10128576","name":"SHELL SAKASAKA ROAD","brand":"shell","country_code":"GH","lat":9.415626,"lng":-0.841609,"address":"Tamale Sakasaka ","city":"Tamale Sakasaka","state":"","postcode":"233","country":"Ghana","telephone":"+233 24 479 0318","fuels":["Premium Diesel","Unleaded 95","Diesel"],"amenities":["Air/Water","Convenience Store","Disabled Access","Self Service","Toilets","Full Service","Truck Parking","High Flow Diesel","Brand Loyalty","Parking","Lube Service"],"payments":["Credit Card","Mobile Payment","Pay at Pump","Fleet Card"],"open24Hours":false,"hours":null,"openStatusRaw":"closed","nextStatusChange":"2026-02-01T06:00:00.670Z"},{"id":"shell-10123925","name":"SHELL SAVELUGU TOWN","brand":"shell","country_code":"GH","lat":9.636432,"lng":-0.826981,"address":"SAVELUGU","city":"SAVELUGU","state":"","postcode":"233","country":"Ghana","telephone":"+233 24 485 3584","fuels":["Unleaded 95","Diesel"],"amenities":["Self Service","Toilets","Full Service","Truck Parking","High Flow Diesel","Local Community","Brand Loyalty","Parking","Lube Service"],"payments":["Credit Card","Mobile Payment","Pay at Pump","Fleet Card"],"open24Hours":false,"hours":null,"openStatusRaw":"closed","nextStatusChange":"2026-02-01T06:00:00.641Z"},{"id":"shell-10123803","name":"SHELL WA-TUMU ROAD","brand":"shell","country_code":"GH","lat":10.079137,"lng":-2.489389,"address":"Bolgatanga ","city":"Bolgatanga","state":"","postcode":"233","country":"Ghana","telephone":"+233 24 469 5989","fuels":["CNG","Unleaded 95","Diesel"],"amenities":["Self Service","Toilets","Full Service","Truck Parking","High Flow Diesel","Local Community","Brand Loyalty","Parking","Lube Service","Convenience Store"],"payments":["Credit Card","Mobile Payment","Pay at Pump","Fleet Card"],"open24Hours":false,"hours":null,"openStatusRaw":"closed","nextStatusChange":"2026-02-01T06:00:00.720Z"},{"id":"shell-10128634","name":"SHELL NADOWLI WEST","brand":"shell","country_code":"GH","lat":10.355388,"lng":-2.650412,"address":"Nadowli  Da-uri","city":"Nadowli  Da-uri","state":"","postcode":"233","country":"Ghana","telephone":"+233 20 528 4563","fuels":["Unleaded 95","Diesel"],"amenities":["Air/Water","Self Service","Toilets","Full Service","Truck Parking","High Flow Diesel","Brand Loyalty","Parking","Lube Service","Convenience Store","Tyres & Batteries"],"payments":["Credit Card","Mobile Payment","Pay at Pump","Fleet Card"],"open24Hours":false,"hours":null,"openStatusRaw":"closed","nextStatusChange":"2026-02-01T06:00:00.825Z"},{"id":"shell-10128630","name":"SHELL WALEWALE","brand":"shell","country_code":"GH","lat":10.351562,"lng":-0.792606,"address":"Walewale kukuasu","city":"Walewale kukuasu","state":"","postcode":"233","country":"Ghana","telephone":"+233 20 460 3185","fuels":["Unleaded 95","Diesel"],"amenities":["Disabled Access","Self Service","Toilets","Full Service","Truck Parking","High Flow Diesel","Brand Loyalty","Parking","Lube Service"],"payments":["Credit Card","Mobile Payment","Pay at Pump","Fleet Card"],"open24Hours":false,"hours":null,"openStatusRaw":"closed","nextStatusChange":"2026-02-01T06:00:00.878Z"},{"id":"shell-10128729","name":"SHELL BOLGA ROAD","brand":"shell","country_code":"GH","lat":10.639942,"lng":-0.855622,"address":"Balungu","city":"Balungu","state":"","postcode":"233","country":"Ghana","telephone":"+233 20 404 1137","fuels":["Unleaded 95","Diesel"],"amenities":["Self Service","Toilets","Full Service","Truck Parking","High Flow Diesel","Brand Loyalty","Parking","Lube Service","Service Bay"],"payments":["Credit Card","Mobile Payment","Pay at Pump","Fleet Card"],"open24Hours":false,"hours":null,"openStatusRaw":"closed","nextStatusChange":"2026-02-01T06:00:00.266Z"},{"id":"shell-10124018","name":"SHELL PUSU NAMONGO","brand":"shell","country_code":"GH","lat":10.699365,"lng":-0.865324,"address":"Talensi District Pusu-Namongo","city":"Talensi District Pusu-Namongo","state":"","postcode":"233","country":"Ghana","telephone":"+233 26 424 5742","fuels":["Unleaded 95","Diesel"],"amenities":["Self Service","Toilets","Full Service","Truck Parking","High Flow Diesel","Local Community","Brand Loyalty","Parking","Lube Service","Service Bay"],"payments":["Credit Card","Mobile Payment","Pay at Pump","Fleet Card"],"open24Hours":false,"hours":null,"openStatusRaw":"closed","nextStatusChange":"2026-02-01T06:00:00.454Z"},{"id":"shell-10123877","name":"SHELL ZORBISI","brand":"shell","country_code":"GH","lat":10.795112,"lng":-0.859485,"address":"Bolga","city":"Bolga","state":"","postcode":"233","country":"Ghana","telephone":"+233 20 404 1137","fuels":["Unleaded 95","Diesel"],"amenities":["Self Service","Toilets","Full Service","Truck Parking","High Flow Diesel","Local Community","Brand Loyalty","Parking","Lube Service","Service Bay"],"payments":["Credit Card","Mobile Payment","Pay at Pump","Fleet Card"],"open24Hours":false,"hours":null,"openStatusRaw":"closed","nextStatusChange":"2026-02-01T06:00:00.693Z"},{"id":"shell-10128620","name":"Shell Tanzui","brand":"shell","country_code":"GH","lat":10.798356,"lng":-0.867345,"address":"Bolga","city":"Bolga","state":"","postcode":"233","country":"Ghana","telephone":"+233 20 404 1137","fuels":["Unleaded 95","Diesel"],"amenities":["Self Service","Toilets","Full Service","Truck Parking","High Flow Diesel","Brand Loyalty","Parking","Lube Service"],"payments":["Credit Card","Mobile Payment","Pay at Pump","Fleet Card"],"open24Hours":false,"hours":null,"openStatusRaw":"closed","nextStatusChange":"2026-02-01T06:00:00.765Z"},{"id":"shell-10124003","name":"SHELL HAMILE","brand":"shell","country_code":"GH","lat":10.950989,"lng":-2.759557,"address":"Hamile","city":"Hamile","state":"","postcode":"233","country":"Ghana","telephone":"+233 24 469 5989","fuels":["CNG","Premium Diesel","Unleaded 95","Diesel"],"amenities":["Self Service","Toilets","Full Service","Truck Parking","High Flow Diesel","Local Community","Brand Loyalty","Parking","Lube Service","Service Bay"],"payments":["Credit Card","Mobile Payment","Pay at Pump","Fleet Card"],"open24Hours":false,"hours":null,"openStatusRaw":"closed","nextStatusChange":"2026-02-01T06:00:00.151Z"}]