[{"id":"total-osm_node_31066312","name":"Total","brand":"totalenergies","country_code":"GH","lat":9.4014913,"lng":-0.8372812,"address":"","city":"","state":"","postcode":"","country":"Ghana","telephone":"","fuels":["Unleaded 95","Diesel"],"amenities":["Air/Water"],"payments":[],"open24Hours":false,"hours":null},{"id":"total-osm_node_31211477","name":"Total","brand":"totalenergies","country_code":"GH","lat":9.378075,"lng":-0.8696714,"address":"","city":"","state":"","postcode":"","country":"Ghana","telephone":"","fuels":["Unleaded 95","Diesel"],"amenities":[],"payments":[],"open24Hours":false,"hours":null},{"id":"total-osm_node_102737152","name":"Total","brand":"totalenergies","country_code":"GH","lat":5.5652316,"lng":-0.1814228,"address":"","city":"","state":"","postcode":"","country":"Ghana","telephone":"","fuels":["Unleaded 95","Diesel"],"amenities":[],"payments":[],"open24Hours":false,"hours":null},{"id":"total-osm_node_567464508","name":"Total","brand":"totalenergies","country_code":"GH","lat":5.6423029,"lng":-0.15197,"address":"","city":"","state":"","postcode":"","country":"Ghana","telephone":"","fuels":["Unleaded 95","Diesel"],"amenities":[],"payments":[],"open24Hours":false,"hours":null},{"id":"total-osm_node_711799088","name":"Total","brand":"totalenergies","country_code":"GH","lat":10.9726777,"lng":-3.2494326,"address":"","city":"","state":"","postcode":"","country":"Ghana","telephone":"","fuels":["Diesel","Unleaded 91"],"amenities":[],"payments":[],"open24Hours":false,"hours":null},{"id":"total-osm_node_1124532346","name":"Liberation Road TotalEnergies","brand":"totalenergies","country_code":"GH","lat":5.5919865,"lng":-0.1809913,"address":"Liberation Road","city":"","state":"","postcode":"","country":"Ghana","telephone":"","fuels":["Unleaded 95","Diesel"],"amenities":["Air/Water"],"payments":[],"open24Hours":false,"hours":null},{"id":"total-osm_node_1134470934","name":"Total Mallam 1","brand":"totalenergies","country_code":"GH","lat":5.5696699,"lng":-0.2865925,"address":"","city":"","state":"","postcode":"","country":"Ghana","telephone":"","fuels":["Unleaded 95","Diesel"],"amenities":[],"payments":[],"open24Hours":false,"hours":null},{"id":"total-osm_node_1134471645","name":"Total Apremdo","brand":"totalenergies","country_code":"GH","lat":4.9105021,"lng":-1.7932516,"address":"","city":"","state":"","postcode":"","country":"Ghana","telephone":"","fuels":["Unleaded 95","Diesel"],"amenities":[],"payments":[],"open24Hours":false,"hours":null},{"id":"total-osm_node_1134471771","name":"Total","brand":"totalenergies","country_code":"GH","lat":5.5618014,"lng":-0.230634,"address":"","city":"","state":"","postcode":"","country":"Ghana","telephone":"","fuels":["Diesel"],"amenities":[],"payments":[],"open24Hours":false,"hours":null},{"id":"total-osm_node_1134472196","name":"Total Inchaban","brand":"totalenergies","country_code":"GH","lat":4.9942836,"lng":-1.6812777,"address":"","city":"","state":"","postcode":"","country":"Ghana","telephone":"","fuels":["Unleaded 95","Diesel"],"amenities":[],"payments":[],"open24Hours":false,"hours":null},{"id":"total-osm_node_1134472403","name":"Total","brand":"totalenergies","country_code":"GH","lat":5.3823857,"lng":-0.6441214,"address":"","city":"","state":"","postcode":"","country":"Ghana","telephone":"","fuels":["Unleaded 95","Diesel"],"amenities":[],"payments":[],"open24Hours":false,"hours":null},{"id":"total-osm_node_1134472635","name":"Total","brand":"totalenergies","country_code":"GH","lat":5.1228265,"lng":-1.2685037,"address":"","city":"","state":"","postcode":"","country":"Ghana","telephone":"","fuels":["Unleaded 95","Diesel"],"amenities":[],"payments":[],"open24Hours":false,"hours":null},{"id":"total-osm_node_1134472933","name":"Darkuman Junction TotalEnergies","brand":"totalenergies","country_code":"GH","lat":5.5768902,"lng":-0.2544746,"address":"","city":"","state":"","postcode":"","country":"Ghana","telephone":"","fuels":["Unleaded 95","Diesel"],"amenities":[],"payments":[],"open24Hours":false,"hours":null},{"id":"total-osm_node_1136415768","name":"Total","brand":"totalenergies","country_code":"GH","lat":6.7008828,"lng":-1.717484,"address":"","city":"","state":"","postcode":"","country":"Ghana","telephone":"","fuels":["Unleaded 95","Diesel"],"amenities":[],"payments":[],"open24Hours":false,"hours":null},{"id":"total-osm_node_1136418773","name":"Total","brand":"totalenergies","country_code":"GH","lat":5.5379938,"lng":-0.4030458,"address":"Winneba Road","city":"","state":"","postcode":"","country":"Ghana","telephone":"","fuels":["Unleaded 95","Diesel"],"amenities":[],"payments":[],"open24Hours":false,"hours":{"mon":"06:00 - 23:00","tue":"06:00 - 23:00","wed":"06:00 - 23:00","thu":"06:00 - 23:00","fri":"06:00 - 23:00","sat":"06:00 - 23:00","sun":"06:00 - 23:00"}},{"id":"total-osm_node_1212326433","name":"Total","brand":"totalenergies","country_code":"GH","lat":5.6006474,"lng":-0.1972975,"address":"","city":"","state":"","postcode":"","country":"Ghana","telephone":"","fuels":["Unleaded 95","Diesel"],"amenities":[],"payments":[],"open24Hours":false,"hours":null},{"id":"total-osm_node_1213932673","name":"37 Hospital Road Total","brand":"totalenergies","country_code":"GH","lat":5.5906573,"lng":-0.1808573,"address":"","city":"","state":"","postcode":"","country":"Ghana","telephone":"","fuels":["Diesel"],"amenities":[],"payments":[],"open24Hours":false,"hours":null},{"id":"total-osm_node_1276373031","name":"New Town Total","brand":"totalenergies","country_code":"GH","lat":5.585714,"lng":-0.2080117,"address":"Accra New Town","city":"Accra New Town","state":"","postcode":"","country":"Ghana","telephone":"","fuels":["Unleaded 95","Diesel"],"amenities":[],"payments":[],"open24Hours":false,"hours":null},{"id":"total-osm_node_1289579718","name":"TotalEnergies Station","brand":"totalenergies","country_code":"GH","lat":5.9385054,"lng":-0.1158995,"address":"","city":"","state":"","postcode":"","country":"Ghana","telephone":"","fuels":["Unleaded 95","Diesel"],"amenities":[],"payments":[],"open24Hours":false,"hours":null},{"id":"total-osm_node_1292961874","name":"Total Kara Tomdè","brand":"totalenergies","country_code":"GH","lat":9.5466697,"lng":1.1979497,"address":"","city":"","state":"","postcode":"","country":"Ghana","telephone":"","fuels":["Unleaded 95","Diesel"],"amenities":[],"payments":[],"open24Hours":false,"hours":null},{"id":"total-osm_node_1300192845","name":"Total Tarkwa 1","brand":"totalenergies","country_code":"GH","lat":5.3087474,"lng":-1.9934578,"address":"","city":"","state":"","postcode":"","country":"Ghana","telephone":"","fuels":["Unleaded 95","Diesel"],"amenities":[],"payments":[],"open24Hours":false,"hours":null},{"id":"total-osm_node_1364922566","name":"Ring Road Total","brand":"totalenergies","country_code":"GH","lat":5.5726644,"lng":-0.204409,"address":"","city":"","state":"","postcode":"","country":"Ghana","telephone":"","fuels":["Diesel"],"amenities":["Air/Water"],"payments":[],"open24Hours":false,"hours":null},{"id":"total-osm_node_1378720252","name":"Total Amanfrom West II","brand":"totalenergies","country_code":"GH","lat":5.5382961,"lng":-0.399653,"address":"","city":"","state":"","postcode":"","country":"Ghana","telephone":"","fuels":["Unleaded 95","Diesel"],"amenities":["Air/Water"],"payments":[],"open24Hours":false,"hours":null},{"id":"total-osm_node_1405374139","name":"Total Sakaman","brand":"totalenergies","country_code":"GH","lat":5.5738735,"lng":-0.2778822,"address":"","city":"","state":"","postcode":"","country":"Ghana","telephone":"","fuels":["Unleaded 95","Diesel"],"amenities":[],"payments":[],"open24Hours":false,"hours":null},{"id":"total-osm_node_1410209943","name":"Total","brand":"totalenergies","country_code":"GH","lat":10.3300678,"lng":-3.1834037,"address":"","city":"","state":"","postcode":"","country":"Ghana","telephone":"","fuels":["Unleaded 95","Diesel"],"amenities":[],"payments":[],"open24Hours":false,"hours":null},{"id":"total-osm_node_1508412434","name":"Total","brand":"totalenergies","country_code":"GH","lat":5.647492,"lng":-0.178974,"address":"","city":"","state":"","postcode":"","country":"Ghana","telephone":"","fuels":["Unleaded 95","Diesel"],"amenities":["Air/Water"],"payments":[],"open24Hours":false,"hours":null},{"id":"total-osm_node_1508412436","name":"Total Haatso","brand":"totalenergies","country_code":"GH","lat":5.6678005,"lng":-0.2055111,"address":"","city":"","state":"","postcode":"","country":"Ghana","telephone":"","fuels":["Unleaded 95","Diesel"],"amenities":[],"payments":[],"open24Hours":false,"hours":null},{"id":"total-osm_node_1535294604","name":"Total","brand":"totalenergies","country_code":"GH","lat":5.5295591,"lng":-0.6993924,"address":"","city":"","state":"","postcode":"","country":"Ghana","telephone":"","fuels":["Unleaded 95","Diesel"],"amenities":[],"payments":[],"open24Hours":false,"hours":null},{"id":"total-osm_node_1540112725","name":"Total","brand":"totalenergies","country_code":"GH","lat":5.5637586,"lng":-0.1406268,"address":"","city":"","state":"","postcode":"","country":"Ghana","telephone":"","fuels":["Unleaded 95","Diesel"],"amenities":[],"payments":[],"open24Hours":false,"hours":null},{"id":"total-osm_node_1601716632","name":"Total Mallam 2","brand":"totalenergies","country_code":"GH","lat":5.569807,"lng":-0.2848093,"address":"","city":"","state":"","postcode":"","country":"Ghana","telephone":"","fuels":["Unleaded 95","Diesel"],"amenities":[],"payments":[],"open24Hours":false,"hours":null},{"id":"total-osm_node_1662928061","name":"Total","brand":"totalenergies","country_code":"GH","lat":5.5262859,"lng":-0.6988772,"address":"","city":"","state":"","postcode":"","country":"Ghana","telephone":"","fuels":["Diesel","Unleaded 98"],"amenities":[],"payments":[],"open24Hours":false,"hours":null},{"id":"total-osm_node_1685195498","name":"Total","brand":"totalenergies","country_code":"GH","lat":5.5383432,"lng":-0.7028973,"address":"","city":"","state":"","postcode":"","country":"Ghana","telephone":"","fuels":["Diesel","Unleaded 98"],"amenities":[],"payments":[],"open24Hours":false,"hours":null},{"id":"total-osm_node_1686172379","name":"TotalEnergies Station","brand":"totalenergies","country_code":"GH","lat":5.5654234,"lng":-0.2077917,"address":"","city":"","state":"","postcode":"","country":"Ghana","telephone":"","fuels":["Unleaded 95","Diesel"],"amenities":[],"payments":[],"open24Hours":false,"hours":null},{"id":"total-osm_node_1707502691","name":"Total Tokoin Hôpital","brand":"totalenergies","country_code":"GH","lat":6.1415784,"lng":1.2081918,"address":"","city":"","state":"","postcode":"","country":"Ghana","telephone":"","fuels":["Unleaded 95","Diesel"],"amenities":[],"payments":[],"open24Hours":false,"hours":null},{"id":"total-osm_node_1709322223","name":"Total La Paix","brand":"totalenergies","country_code":"GH","lat":6.1338563,"lng":1.2490973,"address":"","city":"","state":"","postcode":"","country":"Ghana","telephone":"","fuels":["Unleaded 95","Diesel"],"amenities":[],"payments":[],"open24Hours":false,"hours":null},{"id":"total-osm_node_1728032263","name":"Fly Over Total","brand":"totalenergies","country_code":"GH","lat":5.5674138,"lng":-0.2119701,"address":"","city":"","state":"","postcode":"","country":"Ghana","telephone":"","fuels":["Unleaded 95","Diesel"],"amenities":[],"payments":[],"open24Hours":false,"hours":null},{"id":"total-osm_node_1747677233","name":"Kanda Overhead Total","brand":"totalenergies","country_code":"GH","lat":5.5735839,"lng":-0.1980178,"address":"","city":"","state":"","postcode":"","country":"Ghana","telephone":"","fuels":["Diesel"],"amenities":["Air/Water"],"payments":[],"open24Hours":false,"hours":null},{"id":"total-osm_node_1750874051","name":"Total","brand":"totalenergies","country_code":"GH","lat":5.6720415,"lng":-0.0460014,"address":"","city":"","state":"","postcode":"","country":"Ghana","telephone":"","fuels":["Unleaded 95","Diesel"],"amenities":[],"payments":[],"open24Hours":false,"hours":null},{"id":"total-osm_node_1751288527","name":"Total","brand":"totalenergies","country_code":"GH","lat":5.6878093,"lng":-0.014853,"address":"","city":"","state":"","postcode":"","country":"Ghana","telephone":"","fuels":["Unleaded 95","Diesel"],"amenities":[],"payments":[],"open24Hours":false,"hours":null},{"id":"total-osm_node_1799091458","name":"Total","brand":"totalenergies","country_code":"GH","lat":9.3964372,"lng":-0.8262402,"address":"","city":"","state":"","postcode":"","country":"Ghana","telephone":"","fuels":["Diesel"],"amenities":["Air/Water"],"payments":[],"open24Hours":false,"hours":null},{"id":"total-osm_node_1823949480","name":"Total","brand":"totalenergies","country_code":"GH","lat":6.7086597,"lng":-1.5990267,"address":"","city":"","state":"","postcode":"","country":"Ghana","telephone":"","fuels":["Unleaded 95","Diesel"],"amenities":[],"payments":[],"open24Hours":false,"hours":null},{"id":"total-osm_node_1853413139","name":"Total","brand":"totalenergies","country_code":"GH","lat":6.6141089,"lng":0.4687759,"address":"","city":"","state":"","postcode":"","country":"Ghana","telephone":"","fuels":["Unleaded 95","Diesel"],"amenities":["Air/Water"],"payments":[],"open24Hours":false,"hours":{"mon":"06:00 - 12:00","tue":"06:00 - 12:00","wed":"06:00 - 12:00","thu":"06:00 - 12:00","fri":"06:00 - 12:00","sat":"06:00 - 12:00","sun":"06:00 - 12:00"}},{"id":"total-osm_node_1879842669","name":"Total Rond Point Port","brand":"totalenergies","country_code":"GH","lat":6.1424398,"lng":1.2754567,"address":"","city":"","state":"","postcode":"","country":"Ghana","telephone":"","fuels":["Unleaded 95","Diesel"],"amenities":[],"payments":[],"open24Hours":false,"hours":null},{"id":"total-osm_node_1880261673","name":"Daboya Road Total","brand":"totalenergies","country_code":"GH","lat":9.4041736,"lng":-0.8467909,"address":"","city":"","state":"","postcode":"","country":"Ghana","telephone":"","fuels":["Unleaded 95","Diesel"],"amenities":["Air/Water"],"payments":[],"open24Hours":false,"hours":null},{"id":"total-osm_node_1901501756","name":"Total","brand":"totalenergies","country_code":"GH","lat":8.0528204,"lng":-1.7267254,"address":"","city":"","state":"","postcode":"","country":"Ghana","telephone":"","fuels":["Unleaded 95","Diesel"],"amenities":[],"payments":[],"open24Hours":false,"hours":null},{"id":"total-osm_node_2003070719","name":"Total","brand":"totalenergies","country_code":"GH","lat":5.6859609,"lng":-0.0327551,"address":"","city":"","state":"","postcode":"","country":"Ghana","telephone":"","fuels":["Unleaded 95","Diesel"],"amenities":[],"payments":[],"open24Hours":false,"hours":null},{"id":"total-osm_node_2005296411","name":"Total","brand":"totalenergies","country_code":"GH","lat":4.9128719,"lng":-1.7846403,"address":"","city":"","state":"","postcode":"","country":"Ghana","telephone":"","fuels":["Unleaded 95","Diesel"],"amenities":[],"payments":[],"open24Hours":false,"hours":null},{"id":"total-osm_node_2024377644","name":"Total","brand":"totalenergies","country_code":"GH","lat":4.9022281,"lng":-1.7674961,"address":"","city":"","state":"","postcode":"","country":"Ghana","telephone":"","fuels":["Unleaded 95","Diesel"],"amenities":[],"payments":[],"open24Hours":false,"hours":null},{"id":"total-osm_node_2026025341","name":"Total","brand":"totalenergies","country_code":"GH","lat":7.3300878,"lng":-2.3247177,"address":"","city":"","state":"","postcode":"","country":"Ghana","telephone":"","fuels":["Unleaded 95","Diesel"],"amenities":[],"payments":[],"open24Hours":false,"hours":null},{"id":"total-osm_node_2093786862","name":"Total Apenkwa","brand":"totalenergies","country_code":"GH","lat":5.6087714,"lng":-0.2262072,"address":"","city":"","state":"","postcode":"","country":"Ghana","telephone":"","fuels":["Unleaded 95","Diesel"],"amenities":[],"payments":[],"open24Hours":false,"hours":null},{"id":"total-osm_node_2199502890","name":"Total","brand":"totalenergies","country_code":"GH","lat":7.3318518,"lng":-2.3262362,"address":"","city":"","state":"","postcode":"","country":"Ghana","telephone":"","fuels":["Unleaded 95","Diesel"],"amenities":[],"payments":[],"open24Hours":false,"hours":null},{"id":"total-osm_node_2258802324","name":"Total Atakpamé PTT","brand":"totalenergies","country_code":"GH","lat":7.5326048,"lng":1.1243871,"address":"","city":"","state":"","postcode":"","country":"Ghana","telephone":"","fuels":["Unleaded 95","Diesel"],"amenities":[],"payments":[],"open24Hours":false,"hours":null},{"id":"total-osm_node_2268322644","name":"Total","brand":"totalenergies","country_code":"GH","lat":6.1074564,"lng":-0.0120248,"address":"","city":"","state":"","postcode":"","country":"Ghana","telephone":"","fuels":["Unleaded 95","Diesel"],"amenities":[],"payments":[],"open24Hours":false,"hours":null},{"id":"total-osm_node_2278895792","name":"Total","brand":"totalenergies","country_code":"GH","lat":10.8451764,"lng":-0.1773691,"address":"","city":"","state":"","postcode":"","country":"Ghana","telephone":"","fuels":["Unleaded 95","Diesel"],"amenities":[],"payments":[],"open24Hours":false,"hours":null},{"id":"total-osm_node_2295812209","name":"Total","brand":"totalenergies","country_code":"GH","lat":10.7194002,"lng":-0.8663451,"address":"","city":"","state":"","postcode":"","country":"Ghana","telephone":"","fuels":["Diesel","Unleaded 91"],"amenities":[],"payments":[],"open24Hours":false,"hours":null},{"id":"total-osm_node_2319250449","name":"Total","brand":"totalenergies","country_code":"GH","lat":6.6069745,"lng":0.4729958,"address":"","city":"","state":"","postcode":"","country":"Ghana","telephone":"","fuels":["Unleaded 95","Diesel"],"amenities":["Air/Water"],"payments":[],"open24Hours":false,"hours":null},{"id":"total-osm_node_2319487619","name":"Total","brand":"totalenergies","country_code":"GH","lat":7.1503593,"lng":0.4709426,"address":"","city":"","state":"","postcode":"","country":"Ghana","telephone":"","fuels":["Unleaded 95","Diesel"],"amenities":[],"payments":[],"open24Hours":false,"hours":null},{"id":"total-osm_node_2330379912","name":"Total","brand":"totalenergies","country_code":"GH","lat":11.0597178,"lng":-0.2420586,"address":"","city":"","state":"","postcode":"","country":"Ghana","telephone":"","fuels":["Unleaded 95","Diesel"],"amenities":[],"payments":[],"open24Hours":false,"hours":null},{"id":"total-osm_node_2406172513","name":"Total","brand":"totalenergies","country_code":"GH","lat":5.6830019,"lng":-0.0141998,"address":"","city":"","state":"","postcode":"","country":"Ghana","telephone":"","fuels":["Unleaded 95","Diesel"],"amenities":[],"payments":[],"open24Hours":false,"hours":null},{"id":"total-osm_node_2536811102","name":"TotalEnergies Station","brand":"totalenergies","country_code":"GH","lat":9.9547628,"lng":1.0561284,"address":"","city":"","state":"","postcode":"","country":"Ghana","telephone":"","fuels":["Unleaded 95","Diesel"],"amenities":[],"payments":[],"open24Hours":false,"hours":null},{"id":"total-osm_node_2559882872","name":"Total Tsotsi","brand":"totalenergies","country_code":"GH","lat":6.1954582,"lng":1.1891842,"address":"","city":"","state":"","postcode":"","country":"Ghana","telephone":"","fuels":["Unleaded 95","Diesel"],"amenities":[],"payments":[],"open24Hours":false,"hours":null},{"id":"total-osm_node_2581068663","name":"Total","brand":"totalenergies","country_code":"GH","lat":6.1213365,"lng":0.0486041,"address":"","city":"","state":"","postcode":"","country":"Ghana","telephone":"","fuels":["Unleaded 95","Diesel"],"amenities":[],"payments":[],"open24Hours":false,"hours":null},{"id":"total-osm_node_2594489230","name":"Total Entente","brand":"totalenergies","country_code":"GH","lat":6.1318905,"lng":1.2435771,"address":"","city":"","state":"","postcode":"","country":"Ghana","telephone":"","fuels":["Unleaded 95","Diesel"],"amenities":[],"payments":[],"open24Hours":false,"hours":null},{"id":"total-osm_node_2616304074","name":"Total Tarkwa II","brand":"totalenergies","country_code":"GH","lat":5.2536059,"lng":-2.0047576,"address":"","city":"","state":"","postcode":"","country":"Ghana","telephone":"","fuels":["Unleaded 95","Diesel"],"amenities":[],"payments":[],"open24Hours":false,"hours":null},{"id":"total-osm_node_2621563941","name":"TotalEnergies","brand":"totalenergies","country_code":"GH","lat":7.4058244,"lng":-1.9616585,"address":"","city":"","state":"","postcode":"","country":"Ghana","telephone":"","fuels":["Diesel","Unleaded 91"],"amenities":[],"payments":[],"open24Hours":false,"hours":null},{"id":"total-osm_node_2621634139","name":"Total","brand":"totalenergies","country_code":"GH","lat":6.708013,"lng":-1.6371915,"address":"","city":"","state":"","postcode":"","country":"Ghana","telephone":"","fuels":["Unleaded 95","Diesel"],"amenities":[],"payments":[],"open24Hours":false,"hours":null},{"id":"total-osm_node_2621634142","name":"Total Suame R/A","brand":"totalenergies","country_code":"GH","lat":6.7099803,"lng":-1.6278528,"address":"","city":"","state":"","postcode":"","country":"Ghana","telephone":"","fuels":["Diesel","Unleaded 91"],"amenities":[],"payments":[],"open24Hours":false,"hours":null},{"id":"total-osm_node_2622097849","name":"Total","brand":"totalenergies","country_code":"GH","lat":5.6378454,"lng":-0.0037742,"address":"","city":"","state":"","postcode":"","country":"Ghana","telephone":"","fuels":["Unleaded 95","Diesel"],"amenities":["Air/Water"],"payments":[],"open24Hours":false,"hours":null},{"id":"total-osm_node_2641892847","name":"T-Oil","brand":"totalenergies","country_code":"GH","lat":6.170782,"lng":1.1931071,"address":"","city":"","state":"","postcode":"","country":"Ghana","telephone":"","fuels":["Diesel"],"amenities":["Convenience Store"],"payments":[],"open24Hours":false,"hours":null},{"id":"total-osm_node_2702371549","name":"Total Palais des Congrès","brand":"totalenergies","country_code":"GH","lat":6.1328696,"lng":1.2168035,"address":"","city":"","state":"","postcode":"","country":"Ghana","telephone":"","fuels":["Diesel"],"amenities":["Convenience Store"],"payments":[],"open24Hours":true,"hours":null},{"id":"total-osm_node_2711489914","name":"Total","brand":"totalenergies","country_code":"GH","lat":5.5530216,"lng":-0.1838825,"address":"","city":"","state":"","postcode":"","country":"Ghana","telephone":"","fuels":["Unleaded 95","Diesel"],"amenities":[],"payments":[],"open24Hours":false,"hours":null},{"id":"total-osm_node_2857639701","name":"Total","brand":"totalenergies","country_code":"GH","lat":5.5608719,"lng":-0.2215187,"address":"","city":"","state":"","postcode":"","country":"Ghana","telephone":"","fuels":["Unleaded 95","Diesel"],"amenities":[],"payments":[],"open24Hours":false,"hours":null},{"id":"total-osm_node_2880456702","name":"Total","brand":"totalenergies","country_code":"GH","lat":6.2718063,"lng":0.0538509,"address":"","city":"","state":"","postcode":"","country":"Ghana","telephone":"","fuels":["Unleaded 95","Diesel"],"amenities":[],"payments":[],"open24Hours":false,"hours":null},{"id":"total-osm_node_2926170811","name":"Total","brand":"totalenergies","country_code":"GH","lat":5.5484576,"lng":-0.2045506,"address":"","city":"","state":"","postcode":"","country":"Ghana","telephone":"","fuels":["Unleaded 95","Diesel"],"amenities":[],"payments":[],"open24Hours":false,"hours":null},{"id":"total-osm_node_2974339888","name":"Total","brand":"totalenergies","country_code":"GH","lat":5.6887609,"lng":-0.2662661,"address":"","city":"","state":"","postcode":"","country":"Ghana","telephone":"","fuels":["Unleaded 95","Diesel"],"amenities":[],"payments":[],"open24Hours":false,"hours":null},{"id":"total-osm_node_3109297585","name":"TotalEnergies Adabraka","brand":"totalenergies","country_code":"GH","lat":5.5653554,"lng":-0.2146411,"address":"","city":"","state":"","postcode":"","country":"Ghana","telephone":"","fuels":["Unleaded 95","Diesel"],"amenities":[],"payments":[],"open24Hours":false,"hours":null},{"id":"total-osm_node_3109313734","name":"Total Liberia Road","brand":"totalenergies","country_code":"GH","lat":5.5559751,"lng":-0.2037138,"address":"","city":"","state":"","postcode":"","country":"Ghana","telephone":"","fuels":["Unleaded 95","Diesel"],"amenities":[],"payments":[],"open24Hours":false,"hours":null},{"id":"total-osm_node_3123797175","name":"Tesano Total","brand":"totalenergies","country_code":"GH","lat":5.598288,"lng":-0.2334419,"address":"","city":"","state":"","postcode":"","country":"Ghana","telephone":"","fuels":["Unleaded 95","Diesel"],"amenities":[],"payments":[],"open24Hours":false,"hours":null},{"id":"total-osm_node_3124789187","name":"Total Kpalimé 1","brand":"totalenergies","country_code":"GH","lat":6.8988138,"lng":0.6355725,"address":"","city":"","state":"","postcode":"","country":"Ghana","telephone":"","fuels":["Unleaded 95","Diesel"],"amenities":[],"payments":[],"open24Hours":false,"hours":null},{"id":"total-osm_node_3188482438","name":"Total","brand":"totalenergies","country_code":"GH","lat":6.1135873,"lng":1.1950034,"address":"","city":"","state":"","postcode":"","country":"Ghana","telephone":"","fuels":["Diesel"],"amenities":["Convenience Store"],"payments":[],"open24Hours":true,"hours":null},{"id":"total-osm_node_3221294848","name":"Total","brand":"totalenergies","country_code":"GH","lat":6.183123,"lng":-1.6815304,"address":"","city":"","state":"","postcode":"","country":"Ghana","telephone":"","fuels":["Unleaded 95","Diesel"],"amenities":[],"payments":[],"open24Hours":false,"hours":null},{"id":"total-osm_node_3284469837","name":"Total Agbalépédogan","brand":"totalenergies","country_code":"GH","lat":6.1983652,"lng":1.2007814,"address":"","city":"","state":"","postcode":"","country":"Ghana","telephone":"","fuels":["Diesel"],"amenities":[],"payments":[],"open24Hours":false,"hours":null},{"id":"total-osm_node_3352833684","name":"Total Guerin Kouka","brand":"totalenergies","country_code":"GH","lat":9.6872665,"lng":0.6081214,"address":"","city":"","state":"","postcode":"","country":"Ghana","telephone":"","fuels":["Unleaded 95","Diesel"],"amenities":[],"payments":[],"open24Hours":false,"hours":null},{"id":"total-osm_node_3613258860","name":"Station Total","brand":"totalenergies","country_code":"GH","lat":7.801848,"lng":-3.1682668,"address":"","city":"","state":"","postcode":"","country":"Ghana","telephone":"","fuels":["Diesel","LPG / Autogas"],"amenities":[],"payments":[],"open24Hours":true,"hours":null},{"id":"total-osm_node_3676893997","name":"Total","brand":"totalenergies","country_code":"GH","lat":5.6450393,"lng":0.0147164,"address":"","city":"","state":"","postcode":"","country":"Ghana","telephone":"","fuels":["Unleaded 95","Diesel"],"amenities":[],"payments":[],"open24Hours":false,"hours":null},{"id":"total-osm_node_3678130684","name":"Total Nungua","brand":"totalenergies","country_code":"GH","lat":5.612632,"lng":-0.0742069,"address":"","city":"","state":"","postcode":"","country":"Ghana","telephone":"","fuels":["Unleaded 95","Diesel"],"amenities":[],"payments":[],"open24Hours":false,"hours":null},{"id":"total-osm_node_3678130685","name":"Total","brand":"totalenergies","country_code":"GH","lat":5.6218986,"lng":-0.0705011,"address":"","city":"","state":"","postcode":"","country":"Ghana","telephone":"","fuels":["Unleaded 95","Diesel"],"amenities":["Air/Water"],"payments":[],"open24Hours":false,"hours":null},{"id":"total-osm_node_3688136106","name":"Total Sogakope","brand":"totalenergies","country_code":"GH","lat":6.0015636,"lng":0.6001414,"address":"","city":"","state":"","postcode":"","country":"Ghana","telephone":"","fuels":["Unleaded 95","Diesel"],"amenities":[],"payments":[],"open24Hours":false,"hours":null},{"id":"total-osm_node_3731304735","name":"TotalEnergies Pobiman","brand":"totalenergies","country_code":"GH","lat":5.734982,"lng":-0.3134225,"address":"","city":"","state":"","postcode":"","country":"Ghana","telephone":"","fuels":["Unleaded 95","Diesel"],"amenities":[],"payments":[],"open24Hours":false,"hours":null},{"id":"total-osm_node_3731304740","name":"Total","brand":"totalenergies","country_code":"GH","lat":6.3418223,"lng":-1.0013403,"address":"","city":"","state":"","postcode":"","country":"Ghana","telephone":"","fuels":["Unleaded 95","Diesel"],"amenities":[],"payments":[],"open24Hours":false,"hours":null},{"id":"total-osm_node_3731855130","name":"Total Kara II","brand":"totalenergies","country_code":"GH","lat":9.533405,"lng":1.1995598,"address":"","city":"","state":"","postcode":"","country":"Ghana","telephone":"","fuels":["Diesel"],"amenities":[],"payments":[],"open24Hours":false,"hours":null},{"id":"total-osm_node_3782645140","name":"Total","brand":"totalenergies","country_code":"GH","lat":4.8997516,"lng":-1.7600477,"address":"Takoradi","city":"Takoradi","state":"","postcode":"","country":"Ghana","telephone":"","fuels":["Unleaded 95","Diesel"],"amenities":[],"payments":[],"open24Hours":false,"hours":null},{"id":"total-osm_node_3807057246","name":"Total Fréau Jardin","brand":"totalenergies","country_code":"GH","lat":6.1321705,"lng":1.2237087,"address":"","city":"","state":"","postcode":"","country":"Ghana","telephone":"","fuels":["Unleaded 95","Diesel"],"amenities":[],"payments":[],"open24Hours":false,"hours":null},{"id":"total-osm_node_3818011861","name":"TotalEnergies Station","brand":"totalenergies","country_code":"GH","lat":4.9150118,"lng":-1.7516347,"address":"","city":"","state":"","postcode":"","country":"Ghana","telephone":"","fuels":["Unleaded 95","Diesel"],"amenities":[],"payments":[],"open24Hours":false,"hours":null},{"id":"total-osm_node_3822302620","name":"Total Hanoukopé","brand":"totalenergies","country_code":"GH","lat":6.1360661,"lng":1.218909,"address":"","city":"","state":"","postcode":"","country":"Ghana","telephone":"","fuels":["Unleaded 95","Diesel"],"amenities":[],"payments":[],"open24Hours":false,"hours":null},{"id":"total-osm_node_3822542860","name":"Total Onyadze","brand":"totalenergies","country_code":"GH","lat":5.3602315,"lng":-0.7064851,"address":"","city":"","state":"","postcode":"","country":"Ghana","telephone":"","fuels":["Unleaded 95","Diesel"],"amenities":[],"payments":[],"open24Hours":false,"hours":null},{"id":"total-osm_node_3838547757","name":"Total Atomic Junction","brand":"totalenergies","country_code":"GH","lat":5.6670238,"lng":-0.1783964,"address":"","city":"","state":"","postcode":"","country":"Ghana","telephone":"","fuels":["Unleaded 95","Diesel"],"amenities":[],"payments":[],"open24Hours":false,"hours":null},{"id":"total-osm_node_3840310625","name":"Total Energies","brand":"totalenergies","country_code":"GH","lat":6.7299936,"lng":-3.4894273,"address":"","city":"","state":"","postcode":"","country":"Ghana","telephone":"","fuels":["Unleaded 95","Diesel"],"amenities":[],"payments":[],"open24Hours":false,"hours":null},{"id":"total-osm_node_3908767732","name":"Total Sokodé Marché","brand":"totalenergies","country_code":"GH","lat":8.9861758,"lng":1.1403709,"address":"","city":"","state":"","postcode":"","country":"Ghana","telephone":"","fuels":["Unleaded 95","Diesel"],"amenities":[],"payments":[],"open24Hours":false,"hours":null},{"id":"total-osm_node_3947345027","name":"Total","brand":"totalenergies","country_code":"GH","lat":5.8406192,"lng":0.2304608,"address":"","city":"","state":"","postcode":"","country":"Ghana","telephone":"","fuels":["Unleaded 95","Diesel"],"amenities":["Air/Water"],"payments":[],"open24Hours":false,"hours":null},{"id":"total-osm_node_3993662833","name":"Total Aburi","brand":"totalenergies","country_code":"GH","lat":5.830709,"lng":-0.1840219,"address":"","city":"","state":"","postcode":"","country":"Ghana","telephone":"","fuels":["Unleaded 95","Diesel"],"amenities":[],"payments":[],"open24Hours":false,"hours":null},{"id":"total-osm_node_3993947776","name":"Total Tabligbo 1","brand":"totalenergies","country_code":"GH","lat":6.5883293,"lng":1.4998293,"address":"Tabligbo","city":"Tabligbo","state":"","postcode":"","country":"Ghana","telephone":"","fuels":["Unleaded 95","Diesel"],"amenities":[],"payments":[],"open24Hours":false,"hours":null},{"id":"total-osm_node_3997866185","name":"Total Akossombo","brand":"totalenergies","country_code":"GH","lat":6.1658294,"lng":1.2024289,"address":"","city":"","state":"","postcode":"","country":"Ghana","telephone":"","fuels":["Unleaded 95","Diesel"],"amenities":[],"payments":[],"open24Hours":false,"hours":null},{"id":"total-osm_node_4008406400","name":"Total Adidogomé","brand":"totalenergies","country_code":"GH","lat":6.1845952,"lng":1.1674781,"address":"","city":"","state":"","postcode":"","country":"Ghana","telephone":"","fuels":["Diesel"],"amenities":["Convenience Store"],"payments":[],"open24Hours":false,"hours":null},{"id":"total-osm_node_4035478049","name":"Total Apowa","brand":"totalenergies","country_code":"GH","lat":4.8939508,"lng":-1.8308369,"address":"","city":"","state":"","postcode":"","country":"Ghana","telephone":"","fuels":["Unleaded 95","Diesel"],"amenities":[],"payments":[],"open24Hours":false,"hours":null},{"id":"total-osm_node_4061676923","name":"Total Bè Lagune","brand":"totalenergies","country_code":"GH","lat":6.1479045,"lng":1.2442384,"address":"","city":"","state":"","postcode":"","country":"Ghana","telephone":"","fuels":["Unleaded 95","Diesel"],"amenities":[],"payments":[],"open24Hours":false,"hours":null},{"id":"total-osm_node_4081276981","name":"Total Kégué","brand":"totalenergies","country_code":"GH","lat":6.2044683,"lng":1.2423067,"address":"","city":"","state":"","postcode":"","country":"Ghana","telephone":"","fuels":["Unleaded 95","Diesel"],"amenities":[],"payments":[],"open24Hours":false,"hours":null},{"id":"total-osm_node_4081276988","name":"Total Jean Paul 2 B","brand":"totalenergies","country_code":"GH","lat":6.1545981,"lng":1.2325421,"address":"","city":"","state":"","postcode":"","country":"Ghana","telephone":"","fuels":["Unleaded 95","Diesel"],"amenities":[],"payments":[],"open24Hours":false,"hours":{"mon":"01:00 - 00:00","tue":"01:00 - 00:00","wed":"01:00 - 00:00","thu":"01:00 - 00:00","fri":"01:00 - 00:00","sat":"01:00 - 00:00","sun":"01:00 - 00:00"}},{"id":"total-osm_node_4102790956","name":"Total Bè Marché","brand":"totalenergies","country_code":"GH","lat":6.1407426,"lng":1.2399098,"address":"","city":"","state":"","postcode":"","country":"Ghana","telephone":"","fuels":["Unleaded 95","Diesel"],"amenities":["Convenience Store"],"payments":[],"open24Hours":true,"hours":null},{"id":"total-osm_node_4113293992","name":"Effiakuma Total","brand":"totalenergies","country_code":"GH","lat":4.9187985,"lng":-1.7681909,"address":"","city":"","state":"","postcode":"","country":"Ghana","telephone":"","fuels":["Unleaded 95","Diesel"],"amenities":[],"payments":[],"open24Hours":false,"hours":null},{"id":"total-osm_node_4148340525","name":"Total Avénou","brand":"totalenergies","country_code":"GH","lat":6.173316,"lng":1.1869387,"address":"","city":"","state":"","postcode":"","country":"Ghana","telephone":"","fuels":["Unleaded 95","Diesel"],"amenities":["Convenience Store"],"payments":[],"open24Hours":false,"hours":null},{"id":"total-osm_node_4161814112","name":"TotalEnergies Bujumbura","brand":"totalenergies","country_code":"GH","lat":5.5221396,"lng":-0.4719171,"address":"","city":"","state":"","postcode":"","country":"Ghana","telephone":"","fuels":["Unleaded 95","Diesel"],"amenities":["Air/Water"],"payments":[],"open24Hours":false,"hours":null},{"id":"total-osm_node_4176791442","name":"Total","brand":"totalenergies","country_code":"GH","lat":7.5849164,"lng":-1.9374645,"address":"","city":"","state":"","postcode":"","country":"Ghana","telephone":"","fuels":["Unleaded 95","Diesel"],"amenities":[],"payments":[],"open24Hours":false,"hours":null},{"id":"total-osm_node_4178751939","name":"Total Sokodé Barrière","brand":"totalenergies","country_code":"GH","lat":8.9926686,"lng":1.1374921,"address":"","city":"","state":"","postcode":"","country":"Ghana","telephone":"","fuels":["Unleaded 95","Diesel"],"amenities":[],"payments":[],"open24Hours":false,"hours":null},{"id":"total-osm_node_4208881434","name":"Total Sokodé Entrée","brand":"totalenergies","country_code":"GH","lat":8.9821063,"lng":1.1398205,"address":"","city":"","state":"","postcode":"","country":"Ghana","telephone":"","fuels":["Diesel"],"amenities":["Convenience Store"],"payments":[],"open24Hours":false,"hours":null},{"id":"total-osm_node_4211075887","name":"Total Anié 2","brand":"totalenergies","country_code":"GH","lat":7.756629,"lng":1.1931386,"address":"","city":"","state":"","postcode":"","country":"Ghana","telephone":"","fuels":["Unleaded 95","Diesel"],"amenities":[],"payments":[],"open24Hours":false,"hours":null},{"id":"total-osm_node_4251078615","name":"Total","brand":"totalenergies","country_code":"GH","lat":4.8904766,"lng":-1.9667481,"address":"","city":"","state":"","postcode":"","country":"Ghana","telephone":"","fuels":["Unleaded 95","Diesel"],"amenities":[],"payments":[],"open24Hours":false,"hours":null},{"id":"total-osm_node_4278309331","name":"Total Dadzi","brand":"totalenergies","country_code":"GH","lat":6.1384623,"lng":1.229107,"address":"","city":"","state":"","postcode":"","country":"Ghana","telephone":"","fuels":["Unleaded 95","Diesel"],"amenities":[],"payments":[],"open24Hours":false,"hours":null},{"id":"total-osm_node_4305848900","name":"Total","brand":"totalenergies","country_code":"GH","lat":5.5597292,"lng":-0.2305402,"address":"","city":"","state":"","postcode":"","country":"Ghana","telephone":"","fuels":["Unleaded 95","Diesel"],"amenities":[],"payments":[],"open24Hours":false,"hours":null},{"id":"total-osm_node_4305848901","name":"Total","brand":"totalenergies","country_code":"GH","lat":5.5766449,"lng":-0.2278321,"address":"","city":"","state":"","postcode":"","country":"Ghana","telephone":"","fuels":["Diesel"],"amenities":[],"payments":[],"open24Hours":false,"hours":null},{"id":"total-osm_node_4305848902","name":"Total Palace II","brand":"totalenergies","country_code":"GH","lat":5.5769506,"lng":-0.2281088,"address":"","city":"","state":"","postcode":"","country":"Ghana","telephone":"","fuels":["Diesel"],"amenities":[],"payments":[],"open24Hours":false,"hours":null},{"id":"total-osm_node_4313597215","name":"Amanfro Total","brand":"totalenergies","country_code":"GH","lat":5.7578092,"lng":-0.1454,"address":"","city":"","state":"","postcode":"","country":"Ghana","telephone":"","fuels":["Unleaded 95","Diesel"],"amenities":[],"payments":[],"open24Hours":false,"hours":null},{"id":"total-osm_node_4331612325","name":"Total Energie Minamadou 1","brand":"totalenergies","country_code":"GH","lat":6.225577,"lng":1.193604,"address":"","city":"","state":"","postcode":"","country":"Ghana","telephone":"","fuels":["Unleaded 95","Diesel"],"amenities":["Convenience Store"],"payments":[],"open24Hours":false,"hours":null},{"id":"total-osm_node_4332726837","name":"Total Energie Minamadou 2","brand":"totalenergies","country_code":"GH","lat":6.2242607,"lng":1.1922081,"address":"","city":"","state":"","postcode":"","country":"Ghana","telephone":"","fuels":["Unleaded 95","Diesel"],"amenities":[],"payments":[],"open24Hours":false,"hours":null},{"id":"total-osm_node_4343342478","name":"Total","brand":"totalenergies","country_code":"GH","lat":6.3077104,"lng":1.2159401,"address":"","city":"","state":"","postcode":"","country":"Ghana","telephone":"","fuels":["Unleaded 95","Diesel"],"amenities":[],"payments":[],"open24Hours":false,"hours":null},{"id":"total-osm_node_4343616960","name":"Total Notsè I","brand":"totalenergies","country_code":"GH","lat":6.9495181,"lng":1.1735458,"address":"","city":"","state":"","postcode":"","country":"Ghana","telephone":"+22822236819","fuels":["Unleaded 95","Diesel"],"amenities":[],"payments":[],"open24Hours":false,"hours":{"mon":"06:00 - 22:00","tue":"06:00 - 22:00","wed":"06:00 - 22:00","thu":"06:00 - 22:00","fri":"06:00 - 22:00","sat":"06:00 - 22:00","sun":"06:00 - 22:00"},"websiteUrl":"https://www.totaltogo.com"},{"id":"total-osm_node_4369634547","name":"Christiansburg Road Total","brand":"totalenergies","country_code":"GH","lat":5.5497982,"lng":-0.1874912,"address":"","city":"","state":"","postcode":"","country":"Ghana","telephone":"","fuels":["Unleaded 95","Diesel"],"amenities":[],"payments":[],"open24Hours":false,"hours":null},{"id":"total-osm_node_4396251847","name":"TotalEnergies Station","brand":"totalenergies","country_code":"GH","lat":7.6956099,"lng":1.1983668,"address":"","city":"","state":"","postcode":"","country":"Ghana","telephone":"","fuels":["Unleaded 95","Diesel"],"amenities":[],"payments":[],"open24Hours":false,"hours":null},{"id":"total-osm_node_4396308201","name":"Total Blitta","brand":"totalenergies","country_code":"GH","lat":8.343571,"lng":1.0093665,"address":"","city":"","state":"","postcode":"","country":"Ghana","telephone":"","fuels":["Unleaded 95","Diesel"],"amenities":[],"payments":[],"open24Hours":false,"hours":null},{"id":"total-osm_node_4396308260","name":"Total Bafilo","brand":"totalenergies","country_code":"GH","lat":9.3829413,"lng":1.2347669,"address":"","city":"","state":"","postcode":"","country":"Ghana","telephone":"","fuels":["Unleaded 95","Diesel"],"amenities":[],"payments":[],"open24Hours":false,"hours":null},{"id":"total-osm_node_4400503918","name":"Total","brand":"totalenergies","country_code":"GH","lat":5.7032098,"lng":-0.1710179,"address":"","city":"","state":"","postcode":"","country":"Ghana","telephone":"","fuels":["Unleaded 95","Diesel"],"amenities":["Convenience Store"],"payments":[],"open24Hours":false,"hours":null},{"id":"total-osm_node_4457227763","name":"Total","brand":"totalenergies","country_code":"GH","lat":4.884308,"lng":-1.7518055,"address":"","city":"","state":"","postcode":"","country":"Ghana","telephone":"","fuels":["Unleaded 95","Diesel"],"amenities":[],"payments":[],"open24Hours":false,"hours":null},{"id":"total-osm_node_4468933009","name":"Total","brand":"totalenergies","country_code":"GH","lat":5.6431392,"lng":-0.0598068,"address":"","city":"","state":"","postcode":"","country":"Ghana","telephone":"","fuels":["Unleaded 95","Diesel"],"amenities":["Air/Water"],"payments":[],"open24Hours":false,"hours":null},{"id":"total-osm_node_4516053237","name":"TotalEnergies Station","brand":"totalenergies","country_code":"GH","lat":7.1284159,"lng":0.7315445,"address":"","city":"","state":"","postcode":"","country":"Ghana","telephone":"","fuels":["Unleaded 95","Diesel"],"amenities":[],"payments":[],"open24Hours":false,"hours":null},{"id":"total-osm_node_4516053285","name":"TotalEnergies Station","brand":"totalenergies","country_code":"GH","lat":7.2022509,"lng":0.6929805,"address":"","city":"","state":"","postcode":"","country":"Ghana","telephone":"","fuels":["Unleaded 95","Diesel"],"amenities":[],"payments":[],"open24Hours":false,"hours":null},{"id":"total-osm_node_4589020434","name":"Total Kara I","brand":"totalenergies","country_code":"GH","lat":9.5461366,"lng":1.1904334,"address":"","city":"","state":"","postcode":"","country":"Ghana","telephone":"","fuels":["Unleaded 95","Diesel"],"amenities":[],"payments":[],"open24Hours":false,"hours":null},{"id":"total-osm_node_4589021985","name":"Total Kara III","brand":"totalenergies","country_code":"GH","lat":9.5457382,"lng":1.190513,"address":"","city":"","state":"","postcode":"","country":"Ghana","telephone":"","fuels":["Unleaded 95","Diesel"],"amenities":[],"payments":[],"open24Hours":false,"hours":null},{"id":"total-osm_node_4636308510","name":"Total","brand":"totalenergies","country_code":"GH","lat":5.5498461,"lng":-0.2649134,"address":"","city":"","state":"","postcode":"","country":"Ghana","telephone":"","fuels":["Unleaded 95","Diesel"],"amenities":[],"payments":[],"open24Hours":false,"hours":null},{"id":"total-osm_node_4640519696","name":"Station d'essence Total","brand":"totalenergies","country_code":"GH","lat":6.1339803,"lng":1.2345716,"address":"","city":"","state":"","postcode":"","country":"Ghana","telephone":"","fuels":["Unleaded 95","Diesel"],"amenities":[],"payments":[],"open24Hours":false,"hours":null},{"id":"total-osm_node_4739889923","name":"TotalEnergies","brand":"totalenergies","country_code":"GH","lat":5.5578513,"lng":-0.2988796,"address":"","city":"","state":"","postcode":"","country":"Ghana","telephone":"","fuels":["Unleaded 95","Diesel"],"amenities":[],"payments":[],"open24Hours":false,"hours":null},{"id":"total-osm_node_4816602706","name":"Total","brand":"totalenergies","country_code":"GH","lat":9.0354307,"lng":-2.4886775,"address":"","city":"","state":"","postcode":"","country":"Ghana","telephone":"","fuels":["Unleaded 95","Diesel"],"amenities":[],"payments":[],"open24Hours":false,"hours":null},{"id":"total-osm_node_4829692465","name":"TOTAL Tchamba","brand":"totalenergies","country_code":"GH","lat":9.0224742,"lng":1.4145417,"address":"","city":"","state":"","postcode":"","country":"Ghana","telephone":"","fuels":["Unleaded 95","Diesel"],"amenities":[],"payments":[],"open24Hours":false,"hours":null},{"id":"total-osm_node_4830568714","name":"Total","brand":"totalenergies","country_code":"GH","lat":5.6095494,"lng":-0.0756423,"address":"","city":"","state":"","postcode":"","country":"Ghana","telephone":"","fuels":["Unleaded 95","Diesel"],"amenities":[],"payments":[],"open24Hours":false,"hours":null},{"id":"total-osm_node_4841367955","name":"Total","brand":"totalenergies","country_code":"GH","lat":6.5548846,"lng":-0.7711692,"address":"","city":"","state":"","postcode":"","country":"Ghana","telephone":"","fuels":["Unleaded 95","Diesel"],"amenities":[],"payments":[],"open24Hours":false,"hours":null},{"id":"total-osm_node_4872676080","name":"Total","brand":"totalenergies","country_code":"GH","lat":6.1044315,"lng":-0.2492309,"address":"","city":"","state":"","postcode":"","country":"Ghana","telephone":"","fuels":["Unleaded 95","Diesel"],"amenities":[],"payments":[],"open24Hours":false,"hours":null},{"id":"total-osm_node_4881656355","name":"Total Suame","brand":"totalenergies","country_code":"GH","lat":6.7152159,"lng":-1.6289726,"address":"","city":"","state":"","postcode":"","country":"Ghana","telephone":"","fuels":["Unleaded 95","Diesel"],"amenities":[],"payments":[],"open24Hours":false,"hours":null},{"id":"total-osm_node_4881656382","name":"Total","brand":"totalenergies","country_code":"GH","lat":6.767425,"lng":-1.6444208,"address":"","city":"","state":"","postcode":"","country":"Ghana","telephone":"","fuels":["Unleaded 95","Diesel"],"amenities":[],"payments":[],"open24Hours":false,"hours":null},{"id":"total-osm_node_4881656397","name":"Total","brand":"totalenergies","country_code":"GH","lat":6.8263012,"lng":-1.6472089,"address":"","city":"","state":"","postcode":"","country":"Ghana","telephone":"","fuels":["Unleaded 95","Diesel"],"amenities":[],"payments":[],"open24Hours":false,"hours":null},{"id":"total-osm_node_4881949950","name":"Total Anloga Junction","brand":"totalenergies","country_code":"GH","lat":6.6891152,"lng":-1.5968531,"address":"","city":"","state":"","postcode":"","country":"Ghana","telephone":"","fuels":["Diesel","Unleaded 98"],"amenities":[],"payments":[],"open24Hours":false,"hours":null},{"id":"total-osm_node_4881949990","name":"Total","brand":"totalenergies","country_code":"GH","lat":6.7055368,"lng":-1.6100711,"address":"","city":"","state":"","postcode":"","country":"Ghana","telephone":"","fuels":["Unleaded 95","Diesel"],"amenities":[],"payments":[],"open24Hours":false,"hours":null},{"id":"total-osm_node_4881950005","name":"Total","brand":"totalenergies","country_code":"GH","lat":6.6896553,"lng":-1.6135935,"address":"","city":"","state":"","postcode":"","country":"Ghana","telephone":"","fuels":["Unleaded 95","Diesel"],"amenities":[],"payments":[],"open24Hours":false,"hours":null},{"id":"total-osm_node_4883636323","name":"Total Agoè-Assiyéyé","brand":"totalenergies","country_code":"GH","lat":6.2344544,"lng":1.1952717,"address":"","city":"","state":"","postcode":"","country":"Ghana","telephone":"","fuels":["Unleaded 95","Diesel"],"amenities":[],"payments":[],"open24Hours":false,"hours":null},{"id":"total-osm_node_4910911756","name":"Total","brand":"totalenergies","country_code":"GH","lat":6.1965165,"lng":-1.6939309,"address":"","city":"","state":"","postcode":"","country":"Ghana","telephone":"","fuels":["Diesel","Unleaded 91"],"amenities":[],"payments":[],"open24Hours":false,"hours":null},{"id":"total-osm_node_4910912015","name":"Total","brand":"totalenergies","country_code":"GH","lat":6.0361512,"lng":-1.7593997,"address":"","city":"","state":"","postcode":"","country":"Ghana","telephone":"","fuels":["Unleaded 95","Diesel"],"amenities":[],"payments":[],"open24Hours":false,"hours":null},{"id":"total-osm_node_4910912741","name":"Total","brand":"totalenergies","country_code":"GH","lat":5.5689578,"lng":-2.016139,"address":"","city":"","state":"","postcode":"","country":"Ghana","telephone":"","fuels":["Unleaded 95","Diesel"],"amenities":[],"payments":[],"open24Hours":false,"hours":null},{"id":"total-osm_node_4910912742","name":"Total Boobooboo","brand":"totalenergies","country_code":"GH","lat":5.3288252,"lng":-1.9804747,"address":"","city":"","state":"","postcode":"","country":"Ghana","telephone":"","fuels":["Unleaded 95","Diesel"],"amenities":[],"payments":[],"open24Hours":false,"hours":null},{"id":"total-osm_node_4937184121","name":"Total","brand":"totalenergies","country_code":"GH","lat":6.6553604,"lng":-1.5902656,"address":"","city":"","state":"","postcode":"","country":"Ghana","telephone":"","fuels":["Unleaded 95","Diesel"],"amenities":[],"payments":[],"open24Hours":false,"hours":null},{"id":"total-osm_node_4937184136","name":"Total Lake Road","brand":"totalenergies","country_code":"GH","lat":6.6656186,"lng":-1.6038269,"address":"","city":"","state":"","postcode":"","country":"Ghana","telephone":"","fuels":["Unleaded 95","Diesel"],"amenities":[],"payments":[],"open24Hours":false,"hours":null},{"id":"total-osm_node_4987993763","name":"Total","brand":"totalenergies","country_code":"GH","lat":5.5358766,"lng":-0.2297983,"address":"","city":"","state":"","postcode":"","country":"Ghana","telephone":"","fuels":["Unleaded 95","Diesel"],"amenities":[],"payments":[],"open24Hours":false,"hours":null},{"id":"total-osm_node_4990549679","name":"Baatsona Total","brand":"totalenergies","country_code":"GH","lat":5.6274238,"lng":-0.0872952,"address":"","city":"","state":"","postcode":"","country":"Ghana","telephone":"","fuels":["Unleaded 95","Diesel"],"amenities":[],"payments":[],"open24Hours":false,"hours":null},{"id":"total-osm_node_5013209304","name":"Total","brand":"totalenergies","country_code":"GH","lat":5.5738101,"lng":-0.2835055,"address":"","city":"","state":"","postcode":"","country":"Ghana","telephone":"","fuels":["Unleaded 95","Diesel"],"amenities":[],"payments":[],"open24Hours":false,"hours":null},{"id":"total-osm_node_5026822851","name":"Total","brand":"totalenergies","country_code":"GH","lat":5.5569932,"lng":-0.2402535,"address":"","city":"","state":"","postcode":"","country":"Ghana","telephone":"","fuels":["Unleaded 95","Diesel"],"amenities":[],"payments":[],"open24Hours":false,"hours":null},{"id":"total-osm_node_5027909232","name":"Total","brand":"totalenergies","country_code":"GH","lat":5.5370683,"lng":-0.4036309,"address":"","city":"","state":"","postcode":"","country":"Ghana","telephone":"","fuels":["Unleaded 95","Diesel"],"amenities":[],"payments":[],"open24Hours":false,"hours":null},{"id":"total-osm_node_5029458061","name":"Total","brand":"totalenergies","country_code":"GH","lat":5.6832274,"lng":-0.1311433,"address":"","city":"","state":"","postcode":"","country":"Ghana","telephone":"","fuels":["Unleaded 95","Diesel"],"amenities":[],"payments":[],"open24Hours":false,"hours":null},{"id":"total-osm_node_5033060367","name":"Total Bonsa","brand":"totalenergies","country_code":"GH","lat":5.178696,"lng":-2.0476136,"address":"","city":"","state":"","postcode":"","country":"Ghana","telephone":"","fuels":["Unleaded 95","Diesel"],"amenities":[],"payments":[],"open24Hours":false,"hours":null},{"id":"total-osm_node_5033062635","name":"Total Bronyibima","brand":"totalenergies","country_code":"GH","lat":5.1036862,"lng":-1.3633278,"address":"","city":"","state":"","postcode":"","country":"Ghana","telephone":"","fuels":["Unleaded 95","Diesel"],"amenities":[],"payments":[],"open24Hours":false,"hours":null},{"id":"total-osm_node_5091727771","name":"Total","brand":"totalenergies","country_code":"GH","lat":4.9492853,"lng":-1.7617733,"address":"","city":"","state":"","postcode":"","country":"Ghana","telephone":"","fuels":["Unleaded 95","Diesel"],"amenities":[],"payments":[],"open24Hours":false,"hours":null},{"id":"total-osm_node_5122710446","name":"Total Kabou","brand":"totalenergies","country_code":"GH","lat":9.4539938,"lng":0.8123972,"address":"","city":"","state":"","postcode":"","country":"Ghana","telephone":"","fuels":["Unleaded 95","Diesel"],"amenities":[],"payments":[],"open24Hours":false,"hours":null},{"id":"total-osm_node_5152163719","name":"Total Marina","brand":"totalenergies","country_code":"GH","lat":6.1275632,"lng":1.2366204,"address":"","city":"","state":"","postcode":"","country":"Ghana","telephone":"","fuels":["Unleaded 95","Diesel"],"amenities":[],"payments":[],"open24Hours":false,"hours":null},{"id":"total-osm_node_5152163945","name":"Total B.T.C.I","brand":"totalenergies","country_code":"GH","lat":6.1369426,"lng":1.2263019,"address":"","city":"","state":"","postcode":"","country":"Ghana","telephone":"","fuels":["Unleaded 95","Diesel"],"amenities":[],"payments":[],"open24Hours":false,"hours":null},{"id":"total-osm_node_5152164124","name":"Total Boulevard 2","brand":"totalenergies","country_code":"GH","lat":6.1310635,"lng":1.2123209,"address":"","city":"","state":"","postcode":"","country":"Ghana","telephone":"","fuels":["Unleaded 95","Diesel"],"amenities":[],"payments":[],"open24Hours":false,"hours":null},{"id":"total-osm_node_5152164163","name":"Total Adjololo","brand":"totalenergies","country_code":"GH","lat":6.1273432,"lng":1.2069082,"address":"","city":"","state":"","postcode":"","country":"Ghana","telephone":"","fuels":["Unleaded 95","Diesel"],"amenities":[],"payments":[],"open24Hours":false,"hours":null},{"id":"total-osm_node_5152210450","name":"Total Jean Paul 2 A","brand":"totalenergies","country_code":"GH","lat":6.153498,"lng":1.2328358,"address":"","city":"","state":"","postcode":"","country":"Ghana","telephone":"","fuels":["Unleaded 95","Diesel"],"amenities":[],"payments":[],"open24Hours":false,"hours":null},{"id":"total-osm_node_5152210463","name":"Total Amoutiévé","brand":"totalenergies","country_code":"GH","lat":6.1429216,"lng":1.2299632,"address":"","city":"","state":"","postcode":"","country":"Ghana","telephone":"","fuels":["Unleaded 95","Diesel"],"amenities":[],"payments":[],"open24Hours":false,"hours":null},{"id":"total-osm_node_5199353226","name":"Total Avenor","brand":"totalenergies","country_code":"GH","lat":5.580926,"lng":-0.2169137,"address":"","city":"","state":"","postcode":"","country":"Ghana","telephone":"","fuels":["Unleaded 95","Diesel"],"amenities":["Air/Water"],"payments":[],"open24Hours":false,"hours":null},{"id":"total-osm_node_5209798221","name":"Total","brand":"totalenergies","country_code":"GH","lat":5.6189382,"lng":-0.2303217,"address":"","city":"","state":"","postcode":"","country":"Ghana","telephone":"","fuels":["Unleaded 95","Diesel"],"amenities":[],"payments":[],"open24Hours":false,"hours":null},{"id":"total-osm_node_5209798224","name":"Achimota Total","brand":"totalenergies","country_code":"GH","lat":5.6171027,"lng":-0.230074,"address":"","city":"","state":"","postcode":"","country":"Ghana","telephone":"","fuels":["Unleaded 95","Diesel"],"amenities":[],"payments":[],"open24Hours":false,"hours":null},{"id":"total-osm_node_5246405191","name":"Total Mango","brand":"totalenergies","country_code":"GH","lat":10.3390224,"lng":0.4693806,"address":"","city":"","state":"","postcode":"","country":"Ghana","telephone":"","fuels":["Unleaded 95","Diesel"],"amenities":[],"payments":[],"open24Hours":false,"hours":null},{"id":"total-osm_node_5246405192","name":"Total Dapaong 1","brand":"totalenergies","country_code":"GH","lat":10.8639031,"lng":0.2050093,"address":"","city":"","state":"","postcode":"","country":"Ghana","telephone":"","fuels":["Unleaded 95","Diesel"],"amenities":[],"payments":[],"open24Hours":false,"hours":null},{"id":"total-osm_node_5246405193","name":"Total Dapaong 2","brand":"totalenergies","country_code":"GH","lat":10.8811167,"lng":0.1929098,"address":"","city":"","state":"","postcode":"","country":"Ghana","telephone":"","fuels":["Unleaded 95","Diesel"],"amenities":[],"payments":[],"open24Hours":false,"hours":null},{"id":"total-osm_node_5246405198","name":"Total Cinkassé 1","brand":"totalenergies","country_code":"GH","lat":11.0967576,"lng":0.022261,"address":"","city":"","state":"","postcode":"","country":"Ghana","telephone":"","fuels":["Unleaded 95","Diesel"],"amenities":[],"payments":[],"open24Hours":false,"hours":null},{"id":"total-osm_node_5246405199","name":"Total Cinkassé 2","brand":"totalenergies","country_code":"GH","lat":11.1102558,"lng":0.0215945,"address":"","city":"","state":"","postcode":"","country":"Ghana","telephone":"","fuels":["Unleaded 95","Diesel"],"amenities":[],"payments":[],"open24Hours":false,"hours":null},{"id":"total-osm_node_5246501016","name":"Total Anié 1","brand":"totalenergies","country_code":"GH","lat":7.763884,"lng":1.1933589,"address":"","city":"","state":"","postcode":"","country":"Ghana","telephone":"","fuels":["Unleaded 95","Diesel"],"amenities":[],"payments":[],"open24Hours":false,"hours":null},{"id":"total-osm_node_5246501341","name":"Total Bandjeli","brand":"totalenergies","country_code":"GH","lat":9.4219081,"lng":0.6243341,"address":"","city":"","state":"","postcode":"","country":"Ghana","telephone":"","fuels":["Unleaded 95","Diesel"],"amenities":[],"payments":[],"open24Hours":false,"hours":null},{"id":"total-osm_node_5246501350","name":"TotalEnergies Bassar","brand":"totalenergies","country_code":"GH","lat":9.2614154,"lng":0.7796799,"address":"","city":"","state":"","postcode":"","country":"Ghana","telephone":"","fuels":["Unleaded 95","Diesel"],"amenities":[],"payments":[],"open24Hours":false,"hours":{"mon":"06:00 - 12:00","tue":"06:00 - 12:00","wed":"06:00 - 12:00","thu":"06:00 - 12:00","fri":"06:00 - 12:00","sat":"06:00 - 12:00","sun":"06:00 - 12:00"}},{"id":"total-osm_node_5246501351","name":"Total Sokodé Kédia","brand":"totalenergies","country_code":"GH","lat":9.0084332,"lng":1.1356983,"address":"","city":"","state":"","postcode":"","country":"Ghana","telephone":"","fuels":["Unleaded 95","Diesel"],"amenities":[],"payments":[],"open24Hours":false,"hours":null},{"id":"total-osm_node_5246524605","name":"Total Tabligbo 2","brand":"totalenergies","country_code":"GH","lat":6.5880861,"lng":1.4992515,"address":"Tabligbo","city":"Tabligbo","state":"","postcode":"","country":"Ghana","telephone":"","fuels":["Unleaded 95","Diesel"],"amenities":[],"payments":[],"open24Hours":false,"hours":null},{"id":"total-osm_node_5246524613","name":"Total Danyi","brand":"totalenergies","country_code":"GH","lat":7.2026131,"lng":0.6934905,"address":"","city":"","state":"","postcode":"","country":"Ghana","telephone":"","fuels":["Unleaded 95","Diesel"],"amenities":[],"payments":[],"open24Hours":false,"hours":null},{"id":"total-osm_node_5246524614","name":"Total Badou","brand":"totalenergies","country_code":"GH","lat":7.5857104,"lng":0.6091323,"address":"","city":"","state":"","postcode":"","country":"Ghana","telephone":"","fuels":["Unleaded 95","Diesel"],"amenities":[],"payments":[],"open24Hours":false,"hours":null},{"id":"total-osm_node_5246524615","name":"Total Témédja","brand":"totalenergies","country_code":"GH","lat":7.5210651,"lng":1.06168,"address":"","city":"","state":"","postcode":"","country":"Ghana","telephone":"","fuels":["Unleaded 95","Diesel"],"amenities":[],"payments":[],"open24Hours":false,"hours":null},{"id":"total-osm_node_5246524622","name":"Total Agbonou","brand":"totalenergies","country_code":"GH","lat":7.5126449,"lng":1.1587197,"address":"","city":"","state":"","postcode":"","country":"Ghana","telephone":"","fuels":["Unleaded 95","Diesel"],"amenities":[],"payments":[],"open24Hours":false,"hours":null},{"id":"total-osm_node_5246802344","name":"Total Adéticopé","brand":"totalenergies","country_code":"GH","lat":6.3238068,"lng":1.2190224,"address":"","city":"","state":"","postcode":"","country":"Ghana","telephone":"","fuels":["Unleaded 95","Diesel"],"amenities":[],"payments":[],"open24Hours":false,"hours":null},{"id":"total-osm_node_5246802354","name":"Total Tsévié 3","brand":"totalenergies","country_code":"GH","lat":6.4117696,"lng":1.2095133,"address":"","city":"","state":"","postcode":"","country":"Ghana","telephone":"","fuels":["Unleaded 95","Diesel"],"amenities":["Air/Water"],"payments":[],"open24Hours":false,"hours":null},{"id":"total-osm_node_5246802355","name":"Total Tsévié 2","brand":"totalenergies","country_code":"GH","lat":6.428221,"lng":1.213139,"address":"","city":"","state":"","postcode":"","country":"Ghana","telephone":"","fuels":["Unleaded 95","Diesel"],"amenities":[],"payments":[],"open24Hours":false,"hours":null},{"id":"total-osm_node_5246802366","name":"Total Tsévié 1","brand":"totalenergies","country_code":"GH","lat":6.4298562,"lng":1.2128688,"address":"","city":"","state":"","postcode":"","country":"Ghana","telephone":"","fuels":["Unleaded 95","Diesel"],"amenities":[],"payments":[],"open24Hours":false,"hours":null},{"id":"total-osm_node_5246818295","name":"Total Route de l'Aéroport","brand":"totalenergies","country_code":"GH","lat":6.1618902,"lng":1.2443136,"address":"","city":"","state":"","postcode":"","country":"Ghana","telephone":"","fuels":["Unleaded 95","Diesel"],"amenities":[],"payments":[],"open24Hours":false,"hours":null},{"id":"total-osm_node_5246818308","name":"Total Tokoin Centre","brand":"totalenergies","country_code":"GH","lat":6.1548054,"lng":1.2173185,"address":"","city":"","state":"","postcode":"","country":"Ghana","telephone":"","fuels":["Unleaded 95","Diesel"],"amenities":[],"payments":[],"open24Hours":false,"hours":null},{"id":"total-osm_node_5246818316","name":"Total Lomé 2","brand":"totalenergies","country_code":"GH","lat":6.1919212,"lng":1.2090889,"address":"","city":"","state":"","postcode":"","country":"Ghana","telephone":"","fuels":["Unleaded 95","Diesel"],"amenities":[],"payments":[],"open24Hours":false,"hours":null},{"id":"total-osm_node_5246818318","name":"Total Agoè","brand":"totalenergies","country_code":"GH","lat":6.2158851,"lng":1.2090459,"address":"","city":"","state":"","postcode":"","country":"Ghana","telephone":"","fuels":["Unleaded 95","Diesel"],"amenities":[],"payments":[],"open24Hours":true,"hours":null},{"id":"total-osm_node_5246912660","name":"Total Adakpamé","brand":"totalenergies","country_code":"GH","lat":6.1701323,"lng":1.2911001,"address":"","city":"","state":"","postcode":"","country":"Ghana","telephone":"","fuels":["Unleaded 95","Diesel"],"amenities":[],"payments":[],"open24Hours":false,"hours":null},{"id":"total-osm_node_5246912678","name":"Total Baguida","brand":"totalenergies","country_code":"GH","lat":6.1635316,"lng":1.3247457,"address":"","city":"","state":"","postcode":"","country":"Ghana","telephone":"","fuels":["Unleaded 95","Diesel"],"amenities":[],"payments":[],"open24Hours":false,"hours":null},{"id":"total-osm_node_5246912684","name":"Total Champs de Course","brand":"totalenergies","country_code":"GH","lat":6.1432663,"lng":1.2170624,"address":"","city":"","state":"","postcode":"","country":"Ghana","telephone":"","fuels":["Unleaded 95","Diesel"],"amenities":[],"payments":[],"open24Hours":false,"hours":null},{"id":"total-osm_node_5249527073","name":"Total","brand":"totalenergies","country_code":"GH","lat":9.4399601,"lng":-0.0065825,"address":"","city":"","state":"","postcode":"","country":"Ghana","telephone":"","fuels":["Unleaded 95","Diesel"],"amenities":[],"payments":[],"open24Hours":false,"hours":null},{"id":"total-osm_node_5286238588","name":"Total","brand":"totalenergies","country_code":"GH","lat":10.0625783,"lng":-2.5061649,"address":"","city":"","state":"","postcode":"","country":"Ghana","telephone":"","fuels":["Unleaded 95","Diesel"],"amenities":[],"payments":[],"open24Hours":false,"hours":null},{"id":"total-osm_node_5300316092","name":"Total Lapaz","brand":"totalenergies","country_code":"GH","lat":5.6060726,"lng":-0.2473221,"address":"","city":"","state":"","postcode":"","country":"Ghana","telephone":"","fuels":["Unleaded 95","Diesel"],"amenities":[],"payments":[],"open24Hours":false,"hours":null},{"id":"total-osm_node_5302044220","name":"Total","brand":"totalenergies","country_code":"GH","lat":5.535999,"lng":-0.417254,"address":"","city":"","state":"","postcode":"","country":"Ghana","telephone":"","fuels":["Unleaded 95","Diesel"],"amenities":["Air/Water"],"payments":[],"open24Hours":false,"hours":null},{"id":"total-osm_node_5307412980","name":"Total","brand":"totalenergies","country_code":"GH","lat":6.4550727,"lng":-1.5778748,"address":"","city":"","state":"","postcode":"","country":"Ghana","telephone":"","fuels":["Unleaded 95","Diesel"],"amenities":[],"payments":[],"open24Hours":false,"hours":null},{"id":"total-osm_node_5321471071","name":"Total","brand":"totalenergies","country_code":"GH","lat":5.5505857,"lng":-0.1830311,"address":"","city":"","state":"","postcode":"","country":"Ghana","telephone":"","fuels":["Unleaded 95","Diesel"],"amenities":[],"payments":[],"open24Hours":false,"hours":null},{"id":"total-osm_node_5338507126","name":"Total","brand":"totalenergies","country_code":"GH","lat":6.713357,"lng":-1.6164811,"address":"","city":"","state":"","postcode":"","country":"Ghana","telephone":"","fuels":["Unleaded 95","Diesel"],"amenities":[],"payments":[],"open24Hours":false,"hours":null},{"id":"total-osm_node_5400928139","name":"Total Agoè Zongo","brand":"totalenergies","country_code":"GH","lat":6.2499684,"lng":1.2089252,"address":"","city":"","state":"","postcode":"","country":"Ghana","telephone":"","fuels":["Unleaded 95","Diesel"],"amenities":[],"payments":[],"open24Hours":false,"hours":null},{"id":"total-osm_node_5535390808","name":"Total","brand":"totalenergies","country_code":"GH","lat":5.537536,"lng":-0.7024198,"address":"","city":"","state":"","postcode":"","country":"Ghana","telephone":"","fuels":["Unleaded 95","Diesel"],"amenities":[],"payments":[],"open24Hours":false,"hours":null},{"id":"total-osm_node_5535787465","name":"Total","brand":"totalenergies","country_code":"GH","lat":6.2220334,"lng":-0.3656354,"address":"","city":"","state":"","postcode":"","country":"Ghana","telephone":"","fuels":["Unleaded 95","Diesel"],"amenities":[],"payments":[],"open24Hours":false,"hours":null},{"id":"total-osm_node_5613945434","name":"Total Gas","brand":"totalenergies","country_code":"GH","lat":7.1283907,"lng":0.7315568,"address":"","city":"","state":"","postcode":"","country":"Ghana","telephone":"","fuels":["Unleaded 95","Diesel"],"amenities":[],"payments":[],"open24Hours":false,"hours":null},{"id":"total-osm_node_5620041202","name":"TotalEnergies","brand":"totalenergies","country_code":"GH","lat":6.2326387,"lng":0.9982914,"address":"","city":"","state":"","postcode":"","country":"Ghana","telephone":"","fuels":["Unleaded 95","Diesel"],"amenities":[],"payments":[],"open24Hours":false,"hours":null},{"id":"total-osm_node_5717931134","name":"North Kaneshie Total","brand":"totalenergies","country_code":"GH","lat":5.5784899,"lng":-0.2279609,"address":"","city":"","state":"","postcode":"","country":"Ghana","telephone":"","fuels":["Unleaded 95","Diesel"],"amenities":[],"payments":[],"open24Hours":false,"hours":null},{"id":"total-osm_node_5717951944","name":"Total Konongo","brand":"totalenergies","country_code":"GH","lat":6.6232912,"lng":-1.2178745,"address":"","city":"","state":"","postcode":"","country":"Ghana","telephone":"","fuels":["Unleaded 95","Diesel"],"amenities":[],"payments":[],"open24Hours":false,"hours":null},{"id":"total-osm_node_5720517421","name":"Total","brand":"totalenergies","country_code":"GH","lat":5.6059818,"lng":-0.1157119,"address":"","city":"","state":"","postcode":"","country":"Ghana","telephone":"","fuels":["Unleaded 95","Diesel"],"amenities":[],"payments":[],"open24Hours":false,"hours":null},{"id":"total-osm_node_5763910819","name":"Total","brand":"totalenergies","country_code":"GH","lat":6.1635196,"lng":-0.5572169,"address":"","city":"","state":"","postcode":"","country":"Ghana","telephone":"","fuels":["Unleaded 95","Diesel"],"amenities":[],"payments":[],"open24Hours":false,"hours":null},{"id":"total-osm_node_5775921568","name":"Total Liberty Avenue","brand":"totalenergies","country_code":"GH","lat":5.5590821,"lng":-0.2129975,"address":"","city":"","state":"","postcode":"","country":"Ghana","telephone":"","fuels":["Unleaded 95","Diesel"],"amenities":["Air/Water"],"payments":[],"open24Hours":false,"hours":null},{"id":"total-osm_node_5827471608","name":"TOTAL","brand":"totalenergies","country_code":"GH","lat":11.1697651,"lng":-1.1460314,"address":"","city":"","state":"","postcode":"","country":"Ghana","telephone":"","fuels":["Unleaded 95","Diesel"],"amenities":[],"payments":[],"open24Hours":false,"hours":null},{"id":"total-osm_node_5842077817","name":"Total","brand":"totalenergies","country_code":"GH","lat":4.9350801,"lng":-1.758534,"address":"","city":"","state":"","postcode":"","country":"Ghana","telephone":"","fuels":["Unleaded 95","Diesel"],"amenities":[],"payments":[],"open24Hours":false,"hours":null},{"id":"total-osm_node_5930907628","name":"Total","brand":"totalenergies","country_code":"GH","lat":5.5226051,"lng":-0.4693061,"address":"","city":"","state":"","postcode":"","country":"Ghana","telephone":"","fuels":["Unleaded 95","Diesel"],"amenities":["Air/Water"],"payments":[],"open24Hours":false,"hours":null},{"id":"total-osm_node_6016612077","name":"Total","brand":"totalenergies","country_code":"GH","lat":6.5734741,"lng":0.3748884,"address":"","city":"","state":"","postcode":"","country":"Ghana","telephone":"","fuels":["Unleaded 95","Diesel"],"amenities":[],"payments":[],"open24Hours":false,"hours":null},{"id":"total-osm_node_6016612083","name":"TotalEnergies","brand":"totalenergies","country_code":"GH","lat":6.6095847,"lng":0.4584106,"address":"","city":"","state":"","postcode":"","country":"Ghana","telephone":"","fuels":["Unleaded 95","Diesel"],"amenities":[],"payments":[],"open24Hours":false,"hours":null},{"id":"total-osm_node_6016629704","name":"Total","brand":"totalenergies","country_code":"GH","lat":6.0990187,"lng":0.0266236,"address":"","city":"","state":"","postcode":"","country":"Ghana","telephone":"","fuels":["Unleaded 95","Diesel"],"amenities":[],"payments":[],"open24Hours":false,"hours":null},{"id":"total-osm_node_6019717337","name":"TotalEnergies","brand":"totalenergies","country_code":"GH","lat":5.6836968,"lng":-0.0246199,"address":"","city":"","state":"","postcode":"","country":"Ghana","telephone":"","fuels":["Unleaded 95","Diesel"],"amenities":[],"payments":[],"open24Hours":false,"hours":null},{"id":"total-osm_node_6032338550","name":"Total","brand":"totalenergies","country_code":"GH","lat":5.7672466,"lng":0.0633398,"address":"","city":"","state":"","postcode":"","country":"Ghana","telephone":"","fuels":["Unleaded 95","Diesel"],"amenities":["Air/Water"],"payments":[],"open24Hours":false,"hours":null},{"id":"total-osm_node_6033604198","name":"Total","brand":"totalenergies","country_code":"GH","lat":6.6888324,"lng":-1.6005925,"address":"","city":"","state":"","postcode":"","country":"Ghana","telephone":"","fuels":["Unleaded 95","Diesel"],"amenities":[],"payments":[],"open24Hours":false,"hours":null},{"id":"total-osm_node_6037787230","name":"TotalEnergies Kwamo","brand":"totalenergies","country_code":"GH","lat":6.7179993,"lng":-1.4928563,"address":"","city":"","state":"","postcode":"","country":"Ghana","telephone":"","fuels":["Unleaded 95","Diesel"],"amenities":[],"payments":[],"open24Hours":false,"hours":null},{"id":"total-osm_node_6037962036","name":"Total Barima","brand":"totalenergies","country_code":"GH","lat":6.6911374,"lng":-1.5527195,"address":"","city":"","state":"","postcode":"","country":"Ghana","telephone":"","fuels":["Unleaded 95","Diesel"],"amenities":[],"payments":[],"open24Hours":false,"hours":null},{"id":"total-osm_node_6042190386","name":"Total 2","brand":"totalenergies","country_code":"GH","lat":6.0930087,"lng":-0.2591438,"address":"","city":"","state":"","postcode":"","country":"Ghana","telephone":"","fuels":["Unleaded 95","Diesel"],"amenities":[],"payments":[],"open24Hours":false,"hours":null},{"id":"total-osm_node_6054762958","name":"Total Sogbossito","brand":"totalenergies","country_code":"GH","lat":6.2505335,"lng":1.1771843,"address":"","city":"","state":"","postcode":"","country":"Ghana","telephone":"","fuels":["Unleaded 95","Diesel"],"amenities":[],"payments":[],"open24Hours":false,"hours":null},{"id":"total-osm_node_6086840965","name":"Total Nsawam Junction","brand":"totalenergies","country_code":"GH","lat":5.7912707,"lng":-0.3387139,"address":"","city":"","state":"","postcode":"","country":"Ghana","telephone":"","fuels":["Unleaded 95","Diesel"],"amenities":[],"payments":[],"open24Hours":false,"hours":null},{"id":"total-osm_node_6091142239","name":"Total","brand":"totalenergies","country_code":"GH","lat":6.6960368,"lng":-1.6695791,"address":"","city":"","state":"","postcode":"","country":"Ghana","telephone":"","fuels":["Unleaded 95","Diesel"],"amenities":[],"payments":[],"open24Hours":false,"hours":null},{"id":"total-osm_node_6202824571","name":"Total","brand":"totalenergies","country_code":"GH","lat":4.9015423,"lng":-1.767443,"address":"","city":"","state":"","postcode":"","country":"Ghana","telephone":"","fuels":["Unleaded 95","Diesel"],"amenities":[],"payments":[],"open24Hours":false,"hours":null},{"id":"total-osm_node_6215800485","name":"Total","brand":"totalenergies","country_code":"GH","lat":5.5452956,"lng":-0.2130002,"address":"","city":"","state":"","postcode":"","country":"Ghana","telephone":"","fuels":["Unleaded 95","Diesel"],"amenities":[],"payments":[],"open24Hours":false,"hours":null},{"id":"total-osm_node_6229990117","name":"Total","brand":"totalenergies","country_code":"GH","lat":6.4623513,"lng":-2.3059431,"address":"","city":"","state":"","postcode":"","country":"Ghana","telephone":"","fuels":["Unleaded 95","Diesel"],"amenities":[],"payments":[],"open24Hours":false,"hours":null},{"id":"total-osm_node_6278189442","name":"Total","brand":"totalenergies","country_code":"GH","lat":6.7059231,"lng":-1.6265103,"address":"","city":"","state":"","postcode":"","country":"Ghana","telephone":"","fuels":["Unleaded 95","Diesel"],"amenities":[],"payments":[],"open24Hours":false,"hours":null},{"id":"total-osm_node_6284646800","name":"Total","brand":"totalenergies","country_code":"GH","lat":5.776089,"lng":-0.3294041,"address":"","city":"","state":"","postcode":"","country":"Ghana","telephone":"","fuels":["Unleaded 95","Diesel"],"amenities":[],"payments":[],"open24Hours":false,"hours":null},{"id":"total-osm_node_6299269212","name":"Total","brand":"totalenergies","country_code":"GH","lat":5.5355779,"lng":-0.2109694,"address":"","city":"","state":"","postcode":"","country":"Ghana","telephone":"","fuels":["Unleaded 95","Diesel"],"amenities":[],"payments":[],"open24Hours":false,"hours":null},{"id":"total-osm_node_6327490939","name":"Total","brand":"totalenergies","country_code":"GH","lat":6.1054957,"lng":-0.2486261,"address":"","city":"","state":"","postcode":"","country":"Ghana","telephone":"","fuels":["Unleaded 95","Diesel"],"amenities":[],"payments":[],"open24Hours":false,"hours":null},{"id":"total-osm_node_6328451071","name":"Total","brand":"totalenergies","country_code":"GH","lat":11.146446,"lng":-3.0628105,"address":"","city":"","state":"","postcode":"","country":"Ghana","telephone":"","fuels":["Unleaded 95","Diesel"],"amenities":[],"payments":[],"open24Hours":false,"hours":null},{"id":"total-osm_node_6398641723","name":"Korle Bu Total","brand":"totalenergies","country_code":"GH","lat":5.5354164,"lng":-0.2288776,"address":"","city":"","state":"","postcode":"","country":"Ghana","telephone":"","fuels":["Unleaded 95","Diesel"],"amenities":[],"payments":[],"open24Hours":false,"hours":null},{"id":"total-osm_node_6401502137","name":"Total","brand":"totalenergies","country_code":"GH","lat":5.610844,"lng":-1.5532947,"address":"","city":"","state":"","postcode":"","country":"Ghana","telephone":"","fuels":["Diesel"],"amenities":[],"payments":[],"open24Hours":false,"hours":null},{"id":"total-osm_node_6433598686","name":"Total Teshie","brand":"totalenergies","country_code":"GH","lat":5.5831933,"lng":-0.1043209,"address":"Teshie Road","city":"","state":"","postcode":"","country":"Ghana","telephone":"","fuels":["Unleaded 95","Diesel"],"amenities":[],"payments":[],"open24Hours":false,"hours":null},{"id":"total-osm_node_6480239857","name":"Total","brand":"totalenergies","country_code":"GH","lat":8.0380901,"lng":-2.8035111,"address":"","city":"","state":"","postcode":"","country":"Ghana","telephone":"","fuels":["Unleaded 95","Diesel"],"amenities":[],"payments":[],"open24Hours":false,"hours":null},{"id":"total-osm_node_6506200180","name":"Total","brand":"totalenergies","country_code":"GH","lat":5.1167313,"lng":-1.2355463,"address":"","city":"","state":"","postcode":"","country":"Ghana","telephone":"","fuels":["Unleaded 95","Diesel"],"amenities":[],"payments":[],"open24Hours":false,"hours":null},{"id":"total-osm_node_6506345918","name":"Total fuelling station","brand":"totalenergies","country_code":"GH","lat":5.1065096,"lng":-1.2431979,"address":"","city":"","state":"","postcode":"","country":"Ghana","telephone":"","fuels":["Unleaded 95","Diesel"],"amenities":[],"payments":[],"open24Hours":false,"hours":null},{"id":"total-osm_node_6521248727","name":"Total","brand":"totalenergies","country_code":"GH","lat":5.1037687,"lng":-1.2502158,"address":"","city":"","state":"","postcode":"","country":"Ghana","telephone":"","fuels":["Unleaded 95","Diesel"],"amenities":["Air/Water"],"payments":[],"open24Hours":false,"hours":null},{"id":"total-osm_node_6528152485","name":"Total Kotobabi","brand":"totalenergies","country_code":"GH","lat":5.5987245,"lng":-0.1980935,"address":"","city":"","state":"","postcode":"","country":"Ghana","telephone":"","fuels":["Unleaded 95","Diesel"],"amenities":[],"payments":[],"open24Hours":true,"hours":null},{"id":"total-osm_node_6535889148","name":"Total Techiman I","brand":"totalenergies","country_code":"GH","lat":7.5780445,"lng":-1.9357346,"address":"","city":"","state":"","postcode":"","country":"Ghana","telephone":"","fuels":["Unleaded 95","Diesel"],"amenities":[],"payments":[],"open24Hours":false,"hours":null},{"id":"total-osm_node_6535921330","name":"Total","brand":"totalenergies","country_code":"GH","lat":7.5518257,"lng":-1.9362592,"address":"","city":"","state":"","postcode":"","country":"Ghana","telephone":"","fuels":["Unleaded 95","Diesel"],"amenities":[],"payments":[],"open24Hours":false,"hours":null},{"id":"total-osm_node_6535945476","name":"Total Buipe","brand":"totalenergies","country_code":"GH","lat":8.7763866,"lng":-1.4562224,"address":"","city":"","state":"","postcode":"","country":"Ghana","telephone":"","fuels":["Unleaded 95","Diesel"],"amenities":[],"payments":[],"open24Hours":false,"hours":null},{"id":"total-osm_node_6544042021","name":"Total","brand":"totalenergies","country_code":"GH","lat":9.4474162,"lng":-0.8450095,"address":"","city":"","state":"","postcode":"","country":"Ghana","telephone":"","fuels":["Diesel","Unleaded 91"],"amenities":[],"payments":[],"open24Hours":false,"hours":null},{"id":"total-osm_node_6544045989","name":"Total","brand":"totalenergies","country_code":"GH","lat":9.3734591,"lng":-0.8748935,"address":"","city":"","state":"","postcode":"","country":"Ghana","telephone":"","fuels":["Unleaded 95","Diesel"],"amenities":["Air/Water"],"payments":[],"open24Hours":false,"hours":{"mon":"08:00 - 18:00","tue":"08:00 - 18:00","wed":"08:00 - 18:00","thu":"08:00 - 18:00","fri":"08:00 - 18:00","sat":"08:00 - 18:00","sun":""}},{"id":"total-osm_node_6544047311","name":"Total","brand":"totalenergies","country_code":"GH","lat":10.3369029,"lng":-0.8003193,"address":"","city":"","state":"","postcode":"","country":"Ghana","telephone":"","fuels":["Unleaded 95","Diesel"],"amenities":[],"payments":[],"open24Hours":false,"hours":null},{"id":"total-osm_node_6544207689","name":"Total","brand":"totalenergies","country_code":"GH","lat":9.4772118,"lng":-0.8462029,"address":"","city":"","state":"","postcode":"","country":"Ghana","telephone":"","fuels":["Diesel","Unleaded 91"],"amenities":[],"payments":[],"open24Hours":false,"hours":null},{"id":"total-osm_node_6544209504","name":"Total","brand":"totalenergies","country_code":"GH","lat":10.89524,"lng":-1.0832493,"address":"","city":"","state":"","postcode":"","country":"Ghana","telephone":"","fuels":["Unleaded 95","Diesel"],"amenities":[],"payments":[],"open24Hours":false,"hours":null},{"id":"total-osm_node_6546844494","name":"Total","brand":"totalenergies","country_code":"GH","lat":11.0477557,"lng":-0.2699214,"address":"","city":"","state":"","postcode":"","country":"Ghana","telephone":"","fuels":["Unleaded 95","Diesel"],"amenities":[],"payments":[],"open24Hours":false,"hours":null},{"id":"total-osm_node_6564972630","name":"Total","brand":"totalenergies","country_code":"GH","lat":5.5577304,"lng":-0.2395682,"address":"","city":"","state":"","postcode":"","country":"Ghana","telephone":"","fuels":["Unleaded 95","Diesel"],"amenities":[],"payments":[],"open24Hours":false,"hours":null},{"id":"total-osm_node_6679613111","name":"Total","brand":"totalenergies","country_code":"GH","lat":6.731052,"lng":-1.6142578,"address":"","city":"","state":"","postcode":"","country":"Ghana","telephone":"","fuels":["Unleaded 95","Diesel"],"amenities":[],"payments":[],"open24Hours":false,"hours":null},{"id":"total-osm_node_6702616093","name":"Total","brand":"totalenergies","country_code":"GH","lat":7.3442293,"lng":-2.2526074,"address":"","city":"","state":"","postcode":"","country":"Ghana","telephone":"","fuels":["Unleaded 95","Diesel"],"amenities":[],"payments":[],"open24Hours":false,"hours":null},{"id":"total-osm_node_6703690154","name":"Total","brand":"totalenergies","country_code":"GH","lat":5.6893847,"lng":-0.195304,"address":"","city":"","state":"","postcode":"","country":"Ghana","telephone":"","fuels":["Unleaded 95","Diesel"],"amenities":[],"payments":[],"open24Hours":false,"hours":null},{"id":"total-osm_node_6761805332","name":"TotalEnergies Station","brand":"totalenergies","country_code":"GH","lat":9.7649778,"lng":1.1071596,"address":"","city":"","state":"","postcode":"","country":"Ghana","telephone":"","fuels":["Unleaded 95","Diesel"],"amenities":[],"payments":[],"open24Hours":false,"hours":null},{"id":"total-osm_node_6761805337","name":"TotalEnergies Station","brand":"totalenergies","country_code":"GH","lat":6.964256,"lng":1.1718477,"address":"","city":"","state":"","postcode":"","country":"Ghana","telephone":"","fuels":["Unleaded 95","Diesel"],"amenities":[],"payments":[],"open24Hours":false,"hours":null},{"id":"total-osm_node_6761805349","name":"TotalEnergies Station","brand":"totalenergies","country_code":"GH","lat":6.1798263,"lng":1.1954753,"address":"","city":"","state":"","postcode":"","country":"Ghana","telephone":"","fuels":["Unleaded 95","Diesel"],"amenities":[],"payments":[],"open24Hours":false,"hours":null},{"id":"total-osm_node_6936372670","name":"Total Pine Avenue","brand":"totalenergies","country_code":"GH","lat":6.6944771,"lng":-1.6355391,"address":"","city":"","state":"","postcode":"","country":"Ghana","telephone":"","fuels":["Unleaded 95","Diesel"],"amenities":[],"payments":[],"open24Hours":false,"hours":null},{"id":"total-osm_node_7052413778","name":"Total Elubo","brand":"totalenergies","country_code":"GH","lat":5.287931,"lng":-2.7722335,"address":"","city":"","state":"","postcode":"","country":"Ghana","telephone":"","fuels":["Unleaded 95","Diesel"],"amenities":[],"payments":[],"open24Hours":true,"hours":null},{"id":"total-osm_node_7115119148","name":"Total","brand":"totalenergies","country_code":"GH","lat":10.7558507,"lng":-0.8613397,"address":"","city":"","state":"","postcode":"","country":"Ghana","telephone":"","fuels":["Diesel","Unleaded 91"],"amenities":[],"payments":[],"open24Hours":false,"hours":null},{"id":"total-osm_node_7124399382","name":"Total Atlantique","brand":"totalenergies","country_code":"GH","lat":6.1801946,"lng":1.3860918,"address":"Route Nationale Lomé - Aného","city":"","state":"","postcode":"","country":"Ghana","telephone":"","fuels":["Unleaded 95","Diesel"],"amenities":[],"payments":[],"open24Hours":false,"hours":null},{"id":"total-osm_node_7273684610","name":"Total","brand":"totalenergies","country_code":"GH","lat":5.5568562,"lng":-0.2119898,"address":"","city":"","state":"","postcode":"","country":"Ghana","telephone":"","fuels":["Unleaded 95","Diesel"],"amenities":[],"payments":[],"open24Hours":false,"hours":null},{"id":"total-osm_node_7395651748","name":"Total Fuel Station","brand":"totalenergies","country_code":"GH","lat":6.3975786,"lng":-0.1433425,"address":"","city":"","state":"","postcode":"","country":"Ghana","telephone":"","fuels":["Unleaded 95","Diesel"],"amenities":[],"payments":[],"open24Hours":false,"hours":null},{"id":"total-osm_node_7471973435","name":"Total Atomic Energy Road","brand":"totalenergies","country_code":"GH","lat":5.667417,"lng":-0.2180598,"address":"","city":"","state":"","postcode":"","country":"Ghana","telephone":"","fuels":["Unleaded 95","Diesel"],"amenities":[],"payments":[],"open24Hours":false,"hours":{"mon":"06:00 - 18:00","tue":"06:00 - 18:00","wed":"06:00 - 18:00","thu":"06:00 - 18:00","fri":"06:00 - 18:00","sat":"06:00 - 18:00","sun":"06:00 - 18:00"}},{"id":"total-osm_node_7495057065","name":"Total Energies Service Station Ofankor","brand":"totalenergies","country_code":"GH","lat":5.6553536,"lng":-0.2630107,"address":"","city":"","state":"","postcode":"","country":"Ghana","telephone":"","fuels":["Unleaded 95","Diesel"],"amenities":[],"payments":[],"open24Hours":false,"hours":null},{"id":"total-osm_node_7787682625","name":"Total","brand":"totalenergies","country_code":"GH","lat":7.037161,"lng":-1.4147551,"address":"","city":"","state":"","postcode":"","country":"Ghana","telephone":"","fuels":["Unleaded 95","Diesel"],"amenities":[],"payments":[],"open24Hours":false,"hours":null},{"id":"total-osm_node_7787682627","name":"Total","brand":"totalenergies","country_code":"GH","lat":6.9446705,"lng":-1.4859577,"address":"","city":"","state":"","postcode":"","country":"Ghana","telephone":"","fuels":["Unleaded 95","Diesel"],"amenities":[],"payments":[],"open24Hours":false,"hours":null},{"id":"total-osm_node_8907831983","name":"Total","brand":"totalenergies","country_code":"GH","lat":6.9940156,"lng":0.2927525,"address":"","city":"","state":"","postcode":"","country":"Ghana","telephone":"","fuels":["Unleaded 95","Diesel"],"amenities":[],"payments":[],"open24Hours":false,"hours":null},{"id":"total-osm_node_8957051669","name":"Total","brand":"totalenergies","country_code":"GH","lat":10.0247513,"lng":-2.4887838,"address":"","city":"","state":"","postcode":"","country":"Ghana","telephone":"","fuels":["Unleaded 95","Diesel"],"amenities":[],"payments":[],"open24Hours":false,"hours":null},{"id":"total-osm_node_9089484951","name":"Total","brand":"totalenergies","country_code":"GH","lat":10.6425,"lng":-2.8924053,"address":"","city":"","state":"","postcode":"","country":"Ghana","telephone":"","fuels":["Unleaded 95","Diesel"],"amenities":[],"payments":[],"open24Hours":false,"hours":null},{"id":"total-osm_node_9089642169","name":"Total","brand":"totalenergies","country_code":"GH","lat":5.5328128,"lng":-0.4311731,"address":"","city":"","state":"","postcode":"","country":"Ghana","telephone":"","fuels":["Unleaded 95","Diesel"],"amenities":[],"payments":[],"open24Hours":false,"hours":null},{"id":"total-osm_node_9102633342","name":"Total","brand":"totalenergies","country_code":"GH","lat":5.7901715,"lng":-2.4238873,"address":"","city":"","state":"","postcode":"","country":"Ghana","telephone":"","fuels":["Unleaded 95","Diesel"],"amenities":[],"payments":[],"open24Hours":false,"hours":null},{"id":"total-osm_node_9106479459","name":"Total Wassa Agona","brand":"totalenergies","country_code":"GH","lat":5.213493,"lng":-2.0264307,"address":"","city":"","state":"","postcode":"","country":"Ghana","telephone":"","fuels":["Unleaded 95","Diesel"],"amenities":[],"payments":[],"open24Hours":false,"hours":null},{"id":"total-osm_node_9498756262","name":"Bekwai Total","brand":"totalenergies","country_code":"GH","lat":6.6605905,"lng":-1.6427984,"address":"","city":"","state":"","postcode":"","country":"Ghana","telephone":"","fuels":["Unleaded 95","Diesel"],"amenities":[],"payments":[],"open24Hours":false,"hours":null},{"id":"total-osm_node_9501815236","name":"Total","brand":"totalenergies","country_code":"GH","lat":6.6993711,"lng":-1.7683917,"address":"","city":"","state":"","postcode":"","country":"Ghana","telephone":"","fuels":["Unleaded 95","Diesel"],"amenities":[],"payments":[],"open24Hours":false,"hours":null},{"id":"total-osm_node_9507693268","name":"Total","brand":"totalenergies","country_code":"GH","lat":6.6442715,"lng":-1.5719716,"address":"","city":"","state":"","postcode":"","country":"Ghana","telephone":"","fuels":["Unleaded 95","Diesel"],"amenities":[],"payments":[],"open24Hours":false,"hours":null},{"id":"total-osm_node_9546083300","name":"Total","brand":"totalenergies","country_code":"GH","lat":6.6605781,"lng":-1.6054349,"address":"","city":"","state":"","postcode":"","country":"Ghana","telephone":"","fuels":["Unleaded 95","Diesel"],"amenities":[],"payments":[],"open24Hours":false,"hours":null},{"id":"total-osm_node_9602370482","name":"Total Amasaman","brand":"totalenergies","country_code":"GH","lat":5.701588,"lng":-0.2955392,"address":"","city":"","state":"","postcode":"","country":"Ghana","telephone":"","fuels":["Unleaded 95","Diesel"],"amenities":[],"payments":[],"open24Hours":false,"hours":null},{"id":"total-osm_node_9701879694","name":"Total","brand":"totalenergies","country_code":"GH","lat":6.6994212,"lng":-2.446777,"address":"","city":"","state":"","postcode":"","country":"Ghana","telephone":"","fuels":["Unleaded 95","Diesel"],"amenities":[],"payments":[],"open24Hours":false,"hours":null},{"id":"total-osm_node_9761536282","name":"Total","brand":"totalenergies","country_code":"GH","lat":6.6992754,"lng":-1.6118031,"address":"","city":"","state":"","postcode":"","country":"Ghana","telephone":"","fuels":["Unleaded 95","Diesel"],"amenities":[],"payments":[],"open24Hours":false,"hours":null},{"id":"total-osm_node_9795938382","name":"Total Apedokoè","brand":"totalenergies","country_code":"GH","lat":6.210098,"lng":1.1368996,"address":"","city":"","state":"","postcode":"","country":"Ghana","telephone":"","fuels":["Unleaded 95","Diesel"],"amenities":[],"payments":[],"open24Hours":false,"hours":null},{"id":"total-osm_node_10246602429","name":"Total","brand":"totalenergies","country_code":"GH","lat":6.6840288,"lng":-1.6107645,"address":"","city":"","state":"","postcode":"","country":"Ghana","telephone":"","fuels":["Unleaded 95","Diesel"],"amenities":[],"payments":[],"open24Hours":false,"hours":null},{"id":"total-osm_node_10246602436","name":"Total","brand":"totalenergies","country_code":"GH","lat":7.0848619,"lng":-2.024283,"address":"","city":"","state":"","postcode":"","country":"Ghana","telephone":"","fuels":["Unleaded 95","Diesel"],"amenities":[],"payments":[],"open24Hours":false,"hours":null},{"id":"total-osm_node_10553104690","name":"Total","brand":"totalenergies","country_code":"GH","lat":5.1089205,"lng":-2.110261,"address":"","city":"","state":"","postcode":"","country":"Ghana","telephone":"","fuels":["Unleaded 95","Diesel"],"amenities":[],"payments":[],"open24Hours":false,"hours":null},{"id":"total-osm_node_10584603016","name":"Total","brand":"totalenergies","country_code":"GH","lat":6.7086751,"lng":-1.6269631,"address":"","city":"","state":"","postcode":"","country":"Ghana","telephone":"","fuels":["Unleaded 95","Diesel"],"amenities":[],"payments":[],"open24Hours":false,"hours":null},{"id":"total-osm_node_10695797025","name":"Total, Asawase","brand":"totalenergies","country_code":"GH","lat":6.6970434,"lng":-1.6075336,"address":"","city":"","state":"","postcode":"","country":"Ghana","telephone":"","fuels":["Unleaded 95","Diesel"],"amenities":[],"payments":[],"open24Hours":false,"hours":null},{"id":"total-osm_node_10979237810","name":"Total Dzifa-kpota","brand":"totalenergies","country_code":"GH","lat":6.1650094,"lng":1.2706855,"address":"","city":"","state":"","postcode":"","country":"Ghana","telephone":"","fuels":["Unleaded 95","Diesel"],"amenities":[],"payments":[],"open24Hours":false,"hours":null},{"id":"total-osm_node_11177977895","name":"KOTOBABI TOTAL FILLING STATION","brand":"totalenergies","country_code":"GH","lat":5.5987494,"lng":-0.1983079,"address":"Kotobabi Road","city":"","state":"","postcode":"","country":"Ghana","telephone":"","fuels":["Unleaded 95","Diesel"],"amenities":[],"payments":[],"open24Hours":false,"hours":null},{"id":"total-osm_node_12188950355","name":"Total","brand":"totalenergies","country_code":"GH","lat":10.8729298,"lng":-1.9864159,"address":"","city":"","state":"","postcode":"","country":"Ghana","telephone":"","fuels":["Unleaded 95","Diesel"],"amenities":[],"payments":[],"open24Hours":false,"hours":null},{"id":"total-osm_node_12191880368","name":"Total","brand":"totalenergies","country_code":"GH","lat":5.8089796,"lng":-0.3480357,"address":"","city":"","state":"","postcode":"","country":"Ghana","telephone":"","fuels":["Unleaded 95","Diesel"],"amenities":[],"payments":[],"open24Hours":false,"hours":null},{"id":"total-osm_node_12193632510","name":"Total","brand":"totalenergies","country_code":"GH","lat":6.4546991,"lng":-1.5758451,"address":"","city":"","state":"","postcode":"","country":"Ghana","telephone":"","fuels":["Unleaded 95","Diesel"],"amenities":[],"payments":[],"open24Hours":false,"hours":null},{"id":"total-osm_node_12540778695","name":"TotalEnergies","brand":"totalenergies","country_code":"GH","lat":6.2020012,"lng":1.2081112,"address":"","city":"","state":"","postcode":"","country":"Ghana","telephone":"","fuels":["Unleaded 95","Diesel"],"amenities":[],"payments":[],"open24Hours":false,"hours":null},{"id":"total-osm_node_12883314510","name":"Total Energies","brand":"totalenergies","country_code":"GH","lat":6.6993871,"lng":-1.6190432,"address":"","city":"","state":"","postcode":"","country":"Ghana","telephone":"","fuels":["Unleaded 95","Diesel"],"amenities":[],"payments":[],"open24Hours":false,"hours":null},{"id":"total-osm_node_13042645494","name":"Total","brand":"totalenergies","country_code":"GH","lat":5.1666298,"lng":-1.1983877,"address":"","city":"","state":"","postcode":"","country":"Ghana","telephone":"","fuels":["Unleaded 95","Diesel"],"amenities":[],"payments":[],"open24Hours":false,"hours":null},{"id":"total-osm_node_13326863521","name":"Tuba Total Energies Service Station","brand":"totalenergies","country_code":"GH","lat":5.5331311,"lng":-0.3857821,"address":"Tuba Road, Kasoa","city":"Kasoa","state":"","postcode":"","country":"Ghana","telephone":"","fuels":["Diesel","Unleaded 91"],"amenities":[],"payments":[],"open24Hours":false,"hours":null},{"id":"total-osm_node_13360088955","name":"TotalEnergies","brand":"totalenergies","country_code":"GH","lat":5.9233913,"lng":-0.9885947,"address":"","city":"","state":"","postcode":"","country":"Ghana","telephone":"","fuels":["Diesel","Unleaded 91"],"amenities":[],"payments":[],"open24Hours":false,"hours":null},{"id":"total-osm_node_13447980203","name":"TotalEnergies","brand":"totalenergies","country_code":"GH","lat":6.0407784,"lng":-0.4487403,"address":"","city":"","state":"","postcode":"","country":"Ghana","telephone":"","fuels":["Unleaded 95","Diesel"],"amenities":[],"payments":[],"open24Hours":false,"hours":null},{"id":"total-osm_way_309661691","name":"TotalEnergies Station","brand":"totalenergies","country_code":"GH","lat":6.2686713,"lng":1.2100774,"address":"","city":"","state":"","postcode":"","country":"Ghana","telephone":"","fuels":["Unleaded 95","Diesel"],"amenities":["Air/Water"],"payments":[],"open24Hours":false,"hours":null},{"id":"total-osm_way_322778120","name":"Total Kpalimé PTT","brand":"totalenergies","country_code":"GH","lat":6.9073372,"lng":0.6325059,"address":"","city":"","state":"","postcode":"","country":"Ghana","telephone":"","fuels":["Unleaded 95","Diesel"],"amenities":[],"payments":[],"open24Hours":false,"hours":null},{"id":"total-osm_way_436472538","name":"Total","brand":"totalenergies","country_code":"GH","lat":6.9625461,"lng":1.1716415,"address":"","city":"","state":"","postcode":"","country":"Ghana","telephone":"","fuels":["Unleaded 95","Diesel"],"amenities":[],"payments":[],"open24Hours":false,"hours":null},{"id":"total-osm_way_441943234","name":"TotalEnergies Station","brand":"totalenergies","country_code":"GH","lat":9.382897,"lng":1.2347501,"address":"","city":"","state":"","postcode":"","country":"Ghana","telephone":"","fuels":["Unleaded 95","Diesel"],"amenities":[],"payments":[],"open24Hours":false,"hours":null},{"id":"total-osm_way_441960476","name":"TotalEnergies Station","brand":"totalenergies","country_code":"GH","lat":7.5199995,"lng":1.1474917,"address":"","city":"","state":"","postcode":"","country":"Ghana","telephone":"","fuels":["Diesel"],"amenities":[],"payments":[],"open24Hours":false,"hours":null},{"id":"total-osm_way_457878758","name":"Total","brand":"totalenergies","country_code":"GH","lat":5.7530778,"lng":-0.1479814,"address":"","city":"","state":"","postcode":"","country":"Ghana","telephone":"","fuels":["Unleaded 95","Diesel"],"amenities":[],"payments":[],"open24Hours":false,"hours":null},{"id":"total-osm_way_486144992","name":"Station Service Total Agnibilékrou","brand":"totalenergies","country_code":"GH","lat":7.1274289,"lng":-3.2013589,"address":"","city":"","state":"","postcode":"","country":"Ghana","telephone":"","fuels":["Unleaded 95","Diesel"],"amenities":[],"payments":[],"open24Hours":false,"hours":null},{"id":"total-osm_way_490882253","name":"Total","brand":"totalenergies","country_code":"GH","lat":5.5880693,"lng":-0.0993171,"address":"","city":"","state":"","postcode":"","country":"Ghana","telephone":"","fuels":["Unleaded 95","Diesel"],"amenities":[],"payments":[],"open24Hours":false,"hours":null},{"id":"total-osm_way_492078966","name":"Total","brand":"totalenergies","country_code":"GH","lat":6.5535348,"lng":-0.7693874,"address":"","city":"","state":"","postcode":"","country":"Ghana","telephone":"","fuels":["Unleaded 95","Diesel"],"amenities":[],"payments":[],"open24Hours":false,"hours":null},{"id":"total-osm_way_492078967","name":"Total","brand":"totalenergies","country_code":"GH","lat":6.5539412,"lng":-0.7702109,"address":"","city":"","state":"","postcode":"","country":"Ghana","telephone":"","fuels":["Unleaded 95","Diesel"],"amenities":[],"payments":[],"open24Hours":false,"hours":null},{"id":"total-osm_way_615490718","name":"Total 1","brand":"totalenergies","country_code":"GH","lat":6.0915751,"lng":-0.2581103,"address":"","city":"","state":"","postcode":"","country":"Ghana","telephone":"","fuels":["Diesel"],"amenities":["Convenience Store"],"payments":[],"open24Hours":false,"hours":null},{"id":"total-osm_way_720628249","name":"Total Bolga 3","brand":"totalenergies","country_code":"GH","lat":10.783781,"lng":-0.8474446,"address":"","city":"","state":"","postcode":"","country":"Ghana","telephone":"","fuels":["Unleaded 95","Diesel"],"amenities":[],"payments":[],"open24Hours":false,"hours":null},{"id":"total-osm_way_729307290","name":"Total","brand":"totalenergies","country_code":"GH","lat":10.7798131,"lng":-0.8537788,"address":"","city":"","state":"","postcode":"","country":"Ghana","telephone":"","fuels":["Unleaded 95","Diesel"],"amenities":[],"payments":[],"open24Hours":false,"hours":null},