[{"id":"caltex-ws-70270","name":"Y & K Auto Service Centre","brand":"caltex-workshop","country_code":"MY","lat":3.113743,"lng":101.7403363,"address":"No 75, Jalan Perdana 6/4","city":"Pandan Perdana","state":"W.P. Kuala Lumpur","postcode":"55300","country":"Malaysia","telephone":"603 9281 8652","fuels":["Engine Oil","Fuel Additive"],"amenities":["Toilets","Service Bay","Tyres & Batteries","Premium Lounge"],"payments":[],"open24Hours":false,"hours":{"mon":"09:00 - 19:00","tue":"09:00 - 19:00","wed":"09:00 - 19:00","thu":"09:00 - 19:00","fri":"09:00 - 19:00","sat":"09:00 - 19:00","sun":"09:00 - 19:00"}},{"id":"caltex-ws-70271","name":"CN Auto Tyre (Klang) Sdn Bhd","brand":"caltex-workshop","country_code":"MY","lat":2.9881046,"lng":101.4642934,"address":"No. 1, Ground Floor, Lorong Sanggul 1A, Bandar Puteri","city":"Klang","state":"Selangor","postcode":"41200","country":"Malaysia","telephone":"603 5161 1764","fuels":["Engine Oil","Fuel Additive"],"amenities":["Toilets","Service Bay","Tyres & Batteries","AC Lounge","Premium Lounge"],"payments":[],"open24Hours":false,"hours":{"mon":"09:00 - 19:00","tue":"09:00 - 19:00","wed":"09:00 - 19:00","thu":"09:00 - 19:00","fri":"09:00 - 19:00","sat":"09:00 - 19:00","sun":"09:00 - 19:00"}},{"id":"caltex-ws-70272","name":"TKS Khalid Auto Trading.","brand":"caltex-workshop","country_code":"MY","lat":3.0509266,"lng":101.5103061,"address":"No 1, Jalan Toman 1 (17/58C), Seksyen 17","city":"Shah Alam","state":"Selangor","postcode":"40000","country":"Malaysia","telephone":"603 5541 9791","fuels":["Engine Oil","Fuel Additive"],"amenities":["Toilets","Service Bay","Tyres & Batteries","Premium Lounge"],"payments":[],"open24Hours":false,"hours":{"mon":"09:00 - 17:00","tue":"09:00 - 17:00","wed":"09:00 - 17:00","thu":"09:00 - 17:00","fri":"09:00 - 17:00","sat":"09:00 - 17:00","sun":"09:00 - 17:00"}},{"id":"caltex-ws-70273","name":"JMC Auto Service","brand":"caltex-workshop","country_code":"MY","lat":3.1608275,"lng":101.5809943,"address":"No. 32-G, Jalan Pandan 3/9, Pandan Jaya","city":"Pandan Jaya","state":"W.P. Kuala Lumpur","postcode":"55100","country":"Malaysia","telephone":"603 9200 8389","fuels":["Engine Oil","Fuel Additive"],"amenities":["Toilets","Service Bay","Tyres & Batteries","Premium Lounge"],"payments":[],"open24Hours":false,"hours":{"mon":"09:30 - 19:00","tue":"09:30 - 19:00","wed":"09:30 - 19:00","thu":"09:30 - 19:00","fri":"09:30 - 19:00","sat":"09:30 - 19:00","sun":"09:30 - 19:00"}},{"id":"caltex-ws-70274","name":"Siong Wai Auto Service Sdn Bhd","brand":"caltex-workshop","country_code":"MY","lat":3.081808,"lng":101.7171593,"address":"No. 51, Jalan 2/118 B, Desa Tun Razak","city":"Cheras","state":"W.P. Kuala Lumpur","postcode":"56000","country":"Malaysia","telephone":"603 9173 1016","fuels":["Engine Oil","Fuel Additive"],"amenities":["Toilets","Service Bay","Tyres & Batteries","AC Lounge","Premium Lounge"],"payments":[],"open24Hours":false,"hours":{"mon":"09:00 - 19:00","tue":"09:00 - 19:00","wed":"09:00 - 19:00","thu":"09:00 - 19:00","fri":"09:00 - 19:00","sat":"09:00 - 19:00","sun":"09:00 - 19:00"}},{"id":"caltex-ws-70275","name":"KC Lee Autocare Sdn Bhd","brand":"caltex-workshop","country_code":"MY","lat":3.0306704,"lng":101.588128,"address":"No. 12A, USJ 19/4A","city":"Subang Jaya","state":"Selangor","postcode":"47600","country":"Malaysia","telephone":"6019 668 2363","fuels":["Engine Oil","Fuel Additive"],"amenities":["Toilets","Service Bay","Tyres & Batteries","AC Lounge","Premium Lounge"],"payments":[],"open24Hours":false,"hours":{"mon":"09:00 - 17:00","tue":"09:00 - 17:00","wed":"09:00 - 17:00","thu":"09:00 - 17:00","fri":"09:00 - 17:00","sat":"09:00 - 17:00","sun":"09:00 - 17:00"}},{"id":"caltex-ws-70276","name":"Speed Star Wheel Service","brand":"caltex-workshop","country_code":"MY","lat":3.1852183,"lng":101.6744857,"address":"15 & 17, Jalan SS 6/12, Petaling Jaya","city":"Kelana Jaya","state":"Selangor","postcode":"47301","country":"Malaysia","telephone":"6012 274 8669","fuels":["Engine Oil","Fuel Additive"],"amenities":["Toilets","Service Bay","Tyres & Batteries","AC Lounge","Premium Lounge"],"payments":[],"open24Hours":false,"hours":{"mon":"10:00 - 20:00","tue":"10:00 - 20:00","wed":"10:00 - 20:00","thu":"10:00 - 20:00","fri":"10:00 - 20:00","sat":"10:00 - 20:00","sun":"10:00 - 20:00"}},{"id":"caltex-ws-70277","name":"Vigor Auto Sdn Bhd","brand":"caltex-workshop","country_code":"MY","lat":3.0965574,"lng":101.4435273,"address":"No.24-1-1, Jalan Setia Prima (B) U13/B Setia Alam, Seksyen U13","city":"Shah Alam","state":"Selangor","postcode":"40170","country":"Malaysia","telephone":"03 3344 4508","fuels":["Engine Oil","Fuel Additive"],"amenities":["Toilets","Service Bay","Tyres & Batteries","AC Lounge","Premium Lounge"],"payments":[],"open24Hours":false,"hours":{"mon":"09:00 - 19:00","tue":"09:00 - 19:00","wed":"09:00 - 19:00","thu":"09:00 - 19:00","fri":"09:00 - 19:00","sat":"09:00 - 19:00","sun":"09:00 - 19:00"}},{"id":"caltex-ws-70278","name":"Golden More Auto Services","brand":"caltex-workshop","country_code":"MY","lat":3.0622049,"lng":101.4347985,"address":"4 & 6 Lorong Kluang 2, BT 2 Jalan Kapar","city":"Klang","state":"Selangor","postcode":"41400","country":"Malaysia","telephone":"6012 229 0919","fuels":["Engine Oil","Fuel Additive"],"amenities":["Toilets","Service Bay","Tyres & Batteries","Premium Lounge"],"payments":[],"open24Hours":false,"hours":{"mon":"09:30 - 18:00","tue":"09:30 - 18:00","wed":"09:30 - 18:00","thu":"09:30 - 18:00","fri":"09:30 - 18:00","sat":"09:30 - 18:00","sun":"09:30 - 18:00"}},{"id":"caltex-ws-70279","name":"Acespeed Auto Care Sdn Bhd","brand":"caltex-workshop","country_code":"MY","lat":5.9349683,"lng":116.0833423,"address":"Hong Tong Centre, Jalan Penampang Lama, Lorong Hiburan 5","city":"Kota Kinabalu","state":"Sabah","postcode":"88300","country":"Malaysia","telephone":"608 871 1888","fuels":["Engine Oil","Fuel Additive"],"amenities":["Toilets","Service Bay","Tyres & Batteries","Premium Lounge"],"payments":[],"open24Hours":false,"hours":{"mon":"08:30 - 17:00","tue":"08:30 - 17:00","wed":"08:30 - 17:00","thu":"08:30 - 17:00","fri":"08:30 - 17:00","sat":"08:30 - 17:00","sun":"08:30 - 17:00"}},{"id":"caltex-ws-70282","name":"Zai Hing Tyre Battery Services Centre","brand":"caltex-workshop","country_code":"MY","lat":3.1824137,"lng":113.0496778,"address":"45 & 46, Ground Floor, Berjaya Commercial Centre, Jalan Sultan Iskandar","city":"Bintulu","state":"Sarawak","postcode":"97000","country":"Malaysia","telephone":"608 6330 269","fuels":["Engine Oil","Fuel Additive"],"amenities":["Toilets","Service Bay","Tyres & Batteries","Premium Lounge"],"payments":[],"open24Hours":false,"hours":{"mon":"08:00 - 18:00","tue":"08:00 - 18:00","wed":"08:00 - 18:00","thu":"08:00 - 18:00","fri":"08:00 - 18:00","sat":"08:00 - 18:00","sun":"08:00 - 18:00"}},{"id":"caltex-ws-70283","name":"Power Plus Auto Service","brand":"caltex-workshop","country_code":"MY","lat":2.3226563,"lng":111.8366527,"address":"20, Lorong Kwong Ann, Crescent 1A","city":"Sibu","state":"Sarawak","postcode":"96000","country":"Malaysia","telephone":"6012 886 2302","fuels":["Engine Oil","Fuel Additive"],"amenities":["Toilets","Service Bay","Tyres & Batteries","Premium Lounge"],"payments":[],"open24Hours":false,"hours":{"mon":"08:00 - 18:30","tue":"08:00 - 18:30","wed":"08:00 - 18:30","thu":"08:00 - 18:30","fri":"08:00 - 18:30","sat":"08:00 - 18:30","sun":"08:00 - 18:30"}},{"id":"caltex-ws-70284","name":"99 Car Wash","brand":"caltex-workshop","country_code":"MY","lat":2.3183047,"lng":111.8480303,"address":"No. 36, Lot 3044 Jalan Ling Kai Cheng","city":"Sibu","state":"Sarawak","postcode":"96000","country":"Malaysia","telephone":"6018 983 8588","fuels":["Engine Oil","Fuel Additive"],"amenities":["Car Wash","Toilets","Service Bay","Tyres & Batteries","Premium Lounge"],"payments":[],"open24Hours":false,"hours":{"mon":"08:00 - 17:00","tue":"08:00 - 17:00","wed":"08:00 - 17:00","thu":"08:00 - 17:00","fri":"08:00 - 17:00","sat":"08:00 - 17:00","sun":"08:00 - 17:00"}},{"id":"caltex-ws-70285","name":"Wan Seng Auto Parts Service Company","brand":"caltex-workshop","country_code":"MY","lat":2.1696908,"lng":111.6357621,"address":"No. 2, Jalan Bintang Utara","city":"Sibu","state":"Sarawak","postcode":"96500","country":"Malaysia","telephone":"6084 693 245","fuels":["Engine Oil","Fuel Additive"],"amenities":["Toilets","Service Bay","Tyres & Batteries","Premium Lounge"],"payments":[],"open24Hours":false,"hours":{"mon":"08:30 - 17:00","tue":"08:30 - 17:00","wed":"08:30 - 17:00","thu":"08:30 - 17:00","fri":"08:30 - 17:00","sat":"08:30 - 17:00","sun":"08:30 - 17:00"}},{"id":"caltex-ws-70286","name":"Fook Loi Automax Sdn Bhd","brand":"caltex-workshop","country_code":"MY","lat":5.9213343,"lng":116.0605353,"address":"Jalan Lintas (Airport Highway), Kepayan","city":"Kota Kinabalu","state":"Sabah","postcode":"88859","country":"Malaysia","telephone":"6088 313 898","fuels":["Engine Oil","Fuel Additive"],"amenities":["Toilets","Service Bay","Tyres & Batteries","AC Lounge","Premium Lounge"],"payments":[],"open24Hours":false,"hours":{"mon":"08:30 - 17:00","tue":"08:30 - 17:00","wed":"08:30 - 17:00","thu":"08:30 - 17:00","fri":"08:30 - 17:00","sat":"08:30 - 17:00","sun":"08:30 - 17:00"}},{"id":"caltex-ws-70287","name":"Cartex Service Centre","brand":"caltex-workshop","country_code":"MY","lat":3.9347333,"lng":102.3668563,"address":"Lot 7718, Bandar Inderapura","city":"Jerantut","state":"Pahang","postcode":"27000","country":"Malaysia","telephone":"609 260 1855","fuels":["Engine Oil","Fuel Additive"],"amenities":["Toilets","Service Bay","Tyres & Batteries","Premium Lounge"],"payments":[],"open24Hours":false,"hours":{"mon":"09:00 - 17:00","tue":"09:00 - 17:00","wed":"09:00 - 17:00","thu":"09:00 - 17:00","fri":"09:00 - 17:00","sat":"09:00 - 17:00","sun":"09:00 - 17:00"}},{"id":"caltex-ws-70288","name":"YS East Coast Trading","brand":"caltex-workshop","country_code":"MY","lat":4.7197699,"lng":103.418512,"address":"370 Batu 50 Â¼, Jalan Paka","city":"Dungun","state":"Terengganu","postcode":"23000","country":"Malaysia","telephone":"609 6321411","fuels":["Engine Oil","Fuel Additive"],"amenities":["Toilets","Service Bay","Tyres & Batteries","Premium Lounge"],"payments":[],"open24Hours":false,"hours":{"mon":"08:00 - 19:00","tue":"08:00 - 19:00","wed":"08:00 - 19:00","thu":"08:00 - 19:00","fri":"08:00 - 19:00","sat":"08:00 - 19:00","sun":"08:00 - 19:00"}},{"id":"caltex-ws-70289","name":"Sham Auto Service","brand":"caltex-workshop","country_code":"MY","lat":3.7851186,"lng":103.2994343,"address":"No. 35, Tingkat Bawah, Kawasan Industri Batu 13, Jalan Gambang","city":"Kuantan","state":"Pahang","postcode":"25100","country":"Malaysia","telephone":"6019 990 3501","fuels":["Engine Oil","Fuel Additive"],"amenities":["Toilets","Service Bay","Tyres & Batteries","Premium Lounge"],"payments":[],"open24Hours":false,"hours":{"mon":"09:00 - 18:00","tue":"09:00 - 18:00","wed":"09:00 - 18:00","thu":"09:00 - 18:00","fri":"09:00 - 18:00","sat":"09:00 - 18:00","sun":"09:00 - 18:00"}},{"id":"caltex-ws-70290","name":"BM Auto Station","brand":"caltex-workshop","country_code":"MY","lat":3.832183,"lng":103.3472248,"address":"No.18, Lorong Batu Hitam 6, Taman Batu Hitam Indah","city":"Kuantan","state":"Pahang","postcode":"26100","country":"Malaysia","telephone":"609 544 8868","fuels":["Engine Oil","Fuel Additive"],"amenities":["Toilets","Service Bay","Tyres & Batteries","Premium Lounge"],"payments":[],"open24Hours":false,"hours":{"mon":"09:00 - 18:00","tue":"09:00 - 18:00","wed":"09:00 - 18:00","thu":"09:00 - 18:00","fri":"09:00 - 18:00","sat":"09:00 - 18:00","sun":"09:00 - 18:00"}},{"id":"caltex-ws-70291","name":"T.E.C United Auto Sdn Bhd","brand":"caltex-workshop","country_code":"MY","lat":6.1237374,"lng":102.2758476,"address":"Lot 1748, Kampung Tapang, Jalan Hospital","city":"Kota Bharu","state":"Pulau Pinang","postcode":"14200","country":"Malaysia","telephone":"609 764 8581","fuels":["Engine Oil","Fuel Additive"],"amenities":["Toilets","Service Bay","Tyres & Batteries","AC Lounge","Premium Lounge"],"payments":[],"open24Hours":false,"hours":{"mon":"09:00 - 17:00","tue":"09:00 - 17:00","wed":"09:00 - 17:00","thu":"09:00 - 17:00","fri":"09:00 - 17:00","sat":"09:00 - 17:00","sun":"09:00 - 17:00"}},{"id":"caltex-ws-70292","name":"Chen Motor","brand":"caltex-workshop","country_code":"MY","lat":3.5310995,"lng":101.9044863,"address":"A-12, Jalan Tras","city":"Bentong","state":"Pahang","postcode":"28700","country":"Malaysia","telephone":"609 222 1806","fuels":["Engine Oil","Fuel Additive"],"amenities":["Toilets","Service Bay","Tyres & Batteries","Premium Lounge"],"payments":[],"open24Hours":false,"hours":{"mon":"09:00 - 17:00","tue":"09:00 - 17:00","wed":"09:00 - 17:00","thu":"09:00 - 17:00","fri":"09:00 - 17:00","sat":"09:00 - 17:00","sun":"09:00 - 17:00"}},{"id":"caltex-ws-70293","name":"Dynamic Motors Sdn Bhd","brand":"caltex-workshop","country_code":"MY","lat":3.8323957,"lng":103.3441616,"address":"Lot 6024, Jalan Beserah","city":"Kuantan","state":"Pahang","postcode":"25300","country":"Malaysia","telephone":"6012 928 2559","fuels":["Engine Oil","Fuel Additive"],"amenities":["Toilets","Service Bay","Tyres & Batteries","AC Lounge","Premium Lounge"],"payments":[],"open24Hours":false,"hours":{"mon":"08:30 - 18:00","tue":"08:30 - 18:00","wed":"08:30 - 18:00","thu":"08:30 - 18:00","fri":"08:30 - 18:00","sat":"08:30 - 18:00","sun":"08:30 - 18:00"}},{"id":"caltex-ws-70294","name":"Pasir Hor Jentera Motor Sdn Bhd","brand":"caltex-workshop","country_code":"MY","lat":6.089437,"lng":102.2600844,"address":"Lot PT 132, Kampung Pasir Hor","city":"Kota Bahru","state":"Kelantan","postcode":"15100","country":"Malaysia","telephone":"609 765 4456","fuels":[],"amenities":[],"payments":[],"open24Hours":false,"hours":{"mon":"08:00 - 22:00","tue":"08:00 - 22:00","wed":"08:00 - 22:00","thu":"08:00 - 22:00","fri":"08:00 - 22:00","sat":"08:00 - 22:00","sun":"08:00 - 22:00"}},{"id":"caltex-ws-70295","name":"East Merz Benz","brand":"caltex-workshop","country_code":"MY","lat":3.8610249,"lng":103.2511473,"address":"B30, Lorong Padang Permai 47, Perumahan Padang Permai","city":"Kuantan","state":"Pahang","postcode":"25200","country":"Malaysia","telephone":"6012 354 3595","fuels":["Engine Oil","Fuel Additive"],"amenities":["Toilets","Service Bay","Tyres & Batteries","Premium Lounge"],"payments":[],"open24Hours":false,"hours":{"mon":"09:00 - 18:00","tue":"09:00 - 18:00","wed":"09:00 - 18:00","thu":"09:00 - 18:00","fri":"09:00 - 18:00","sat":"09:00 - 18:00","sun":"09:00 - 18:00"}},{"id":"caltex-ws-70296","name":"W B S SINARAN TRADING","brand":"caltex-workshop","country_code":"MY","lat":3.8167249,"lng":103.2897516,"address":"B 26 Tingkat Bawah Lorong Shahzan IM 3, Taman Shahzan, Bandar Indera Mahkota","city":"Kuantan","state":"Pahang","postcode":"25200","country":"Malaysia","telephone":"6011 1686 6234","fuels":["Engine Oil","Fuel Additive"],"amenities":["Toilets","Service Bay","Tyres & Batteries","Premium Lounge"],"payments":[],"open24Hours":false,"hours":{"mon":"09:00 - 17:00","tue":"09:00 - 17:00","wed":"09:00 - 17:00","thu":"09:00 - 17:00","fri":"09:00 - 17:00","sat":"09:00 - 17:00","sun":"09:00 - 17:00"}},{"id":"caltex-ws-70297","name":"KKK Car Service Centre","brand":"caltex-workshop","country_code":"MY","lat":4.226237,"lng":103.4179897,"address":"2308, Taman Bersekutu, Jalan Kubang Kurus","city":"Chukai","state":"Terengganu","postcode":"24000","country":"Malaysia","telephone":"609 859 8054","fuels":["Engine Oil","Fuel Additive"],"amenities":["Toilets","Service Bay","Tyres & Batteries","Premium Lounge"],"payments":[],"open24Hours":false,"hours":{"mon":"09:30 - 18:30","tue":"09:30 - 18:30","wed":"09:30 - 18:30","thu":"09:30 - 18:30","fri":"09:30 - 18:30","sat":"09:30 - 18:30","sun":"09:30 - 18:30"}},{"id":"caltex-ws-70298","name":"Chong Kok Wee Car Service & Repair","brand":"caltex-workshop","country_code":"MY","lat":2.7053645,"lng":101.9248196,"address":"No. 2438, Jalan Kerapu 23, Taan Permai 3","city":"Seremban","state":"Negeri Sembilan","postcode":"70200","country":"Malaysia","telephone":"6012 618 0248","fuels":["Engine Oil","Fuel Additive"],"amenities":["Toilets","Service Bay","Tyres & Batteries","Premium Lounge"],"payments":[],"open24Hours":false,"hours":{"mon":"09:30 - 18:00","tue":"09:30 - 18:00","wed":"09:30 - 18:00","thu":"09:30 - 18:00","fri":"09:30 - 18:00","sat":"09:30 - 18:00","sun":"09:30 - 18:00"}},{"id":"caltex-ws-70299","name":"Khoon Car Services Workshop","brand":"caltex-workshop","country_code":"MY","lat":2.2393681,"lng":102.236109,"address":"No. 50, Jalan IKS Malim Jaya 4, Taman Malim Jaya","city":"Melaka","state":"Melaka","postcode":"75250","country":"Malaysia","telephone":"6016 912 2821","fuels":["Engine Oil","Fuel Additive"],"amenities":["Toilets","Service Bay","Tyres & Batteries","Premium Lounge"],"payments":[],"open24Hours":false,"hours":{"mon":"09:30 - 19:00","tue":"09:30 - 19:00","wed":"09:30 - 19:00","thu":"09:30 - 19:00","fri":"09:30 - 19:00","sat":"09:30 - 19:00","sun":"09:30 - 19:00"}},{"id":"caltex-ws-70300","name":"S&D Tyre & Service Centre","brand":"caltex-workshop","country_code":"MY","lat":1.4853349,"lng":103.7552114,"address":"No.132, Jalan Dato Sulaiman, Taman Century","city":"Johor Bahru","state":"Johor","postcode":"80250","country":"Malaysia","telephone":"6010 760 0444","fuels":["Engine Oil","Fuel Additive"],"amenities":["Toilets","Service Bay","Tyres & Batteries","Premium Lounge"],"payments":[],"open24Hours":false,"hours":{"mon":"08:30 - 18:30","tue":"08:30 - 18:30","wed":"08:30 - 18:30","thu":"08:30 - 18:30","fri":"08:30 - 18:30","sat":"08:30 - 18:30","sun":"08:30 - 18:30"}},{"id":"caltex-ws-70301","name":"CK Autmobile Service Centre Sdn Bhd","brand":"caltex-workshop","country_code":"MY","lat":1.5482892,"lng":103.7445422,"address":"No.33, Jalan Adda 3/1, Taman Adda","city":"Johor Bahru","state":"Johor","postcode":"81100","country":"Malaysia","telephone":"607 358 8930","fuels":["Engine Oil","Fuel Additive"],"amenities":["Toilets","Service Bay","Tyres & Batteries","Premium Lounge"],"payments":[],"open24Hours":false,"hours":{"mon":"09:30 - 19:00","tue":"09:30 - 19:00","wed":"09:30 - 19:00","thu":"09:30 - 19:00","fri":"09:30 - 19:00","sat":"09:30 - 19:00","sun":"09:30 - 19:00"}},{"id":"caltex-ws-70302","name":"Speed Tech Auto Service Centre and Trading","brand":"caltex-workshop","country_code":"MY","lat":1.6601379,"lng":103.5809934,"address":"No. 1149, Jalan Sri Puteri 3/2, Taman Putri Kulai","city":"Kulai","state":"Johor","postcode":"81000","country":"Malaysia","telephone":"6016 7700 686","fuels":["Engine Oil","Fuel Additive"],"amenities":["Toilets","Service Bay","Tyres & Batteries","Premium Lounge"],"payments":[],"open24Hours":false,"hours":{"mon":"09:00 - 17:00","tue":"09:00 - 17:00","wed":"09:00 - 17:00","thu":"09:00 - 17:00","fri":"09:00 - 17:00","sat":"09:00 - 17:00","sun":"09:00 - 17:00"}},{"id":"caltex-ws-70303","name":"City Tyre & Battery","brand":"caltex-workshop","country_code":"MY","lat":1.7188819,"lng":103.8897352,"address":"No. 75, Jalan Baiduri, Taman Daiman Jaya","city":"Kota Tinggi","state":"Johor","postcode":"81900","country":"Malaysia","telephone":"607 882 5098","fuels":["Engine Oil","Fuel Additive"],"amenities":["Toilets","Service Bay","Tyres & Batteries","Premium Lounge"],"payments":[],"open24Hours":false,"hours":{"mon":"09:00 - 17:00","tue":"09:00 - 17:00","wed":"09:00 - 17:00","thu":"09:00 - 17:00","fri":"09:00 - 17:00","sat":"09:00 - 17:00","sun":"09:00 - 17:00"}},{"id":"caltex-ws-70304","name":"Impian Auto","brand":"caltex-workshop","country_code":"MY","lat":2.2826472,"lng":102.159393,"address":"No. 35, Jalan Impian Emas 6, Taman Impian Emas","city":"Johor Bahru","state":"Johor","postcode":"81300","country":"Malaysia","telephone":"607 557 0846","fuels":["Engine Oil","Fuel Additive"],"amenities":["Toilets","Service Bay","Tyres & Batteries","Premium Lounge"],"payments":[],"open24Hours":false,"hours":{"mon":"09:00 - 20:00","tue":"09:00 - 20:00","wed":"09:00 - 20:00","thu":"09:00 - 20:00","fri":"09:00 - 20:00","sat":"09:00 - 20:00","sun":"09:00 - 20:00"}},{"id":"caltex-ws-70305","name":"Sin Tong Ah Sdn Bhd","brand":"caltex-workshop","country_code":"MY","lat":1.7743927,"lng":103.8723874,"address":"3M Jalan Lombong","city":"Kota Tinggi","state":"Johor","postcode":"81900","country":"Malaysia","telephone":"607 883 1284","fuels":["Engine Oil","Fuel Additive"],"amenities":["Toilets","Service Bay","Tyres & Batteries","Premium Lounge"],"payments":[],"open24Hours":false,"hours":{"mon":"09:00 - 17:00","tue":"09:00 - 17:00","wed":"09:00 - 17:00","thu":"09:00 - 17:00","fri":"09:00 - 17:00","sat":"09:00 - 17:00","sun":"09:00 - 17:00"}},{"id":"caltex-ws-70306","name":"Janggut Auto","brand":"caltex-workshop","country_code":"MY","lat":5.8194439,"lng":100.4750991,"address":"No. 95, Pekan Atap","city":"Gurun","state":"Kedah","postcode":"8300","country":"Malaysia","telephone":"604 4684764","fuels":["Engine Oil","Fuel Additive"],"amenities":["Toilets","Service Bay","Tyres & Batteries","Premium Lounge"],"payments":[],"open24Hours":false,"hours":{"mon":"09:00 - 17:00","tue":"09:00 - 17:00","wed":"09:00 - 17:00","thu":"09:00 - 17:00","fri":"09:00 - 17:00","sat":"09:00 - 17:00","sun":"09:00 - 17:00"}},{"id":"caltex-ws-70307","name":"Performance Auto Works Sdn Bhd","brand":"caltex-workshop","country_code":"MY","lat":4.6063624,"lng":101.0551604,"address":"33, Jalan Kilang 1, Jelapang Industrial Estate, First Garden","city":"Ipoh","state":"Perak","postcode":"30100","country":"Malaysia","telephone":"60 5 526 2733","fuels":["Engine Oil","Fuel Additive"],"amenities":["Toilets","Service Bay","Tyres & Batteries","Premium Lounge"],"payments":[],"open24Hours":false,"hours":{"mon":"09:00 - 17:00","tue":"09:00 - 17:00","wed":"09:00 - 17:00","thu":"09:00 - 17:00","fri":"09:00 - 17:00","sat":"09:00 - 17:00","sun":"09:00 - 17:00"}},{"id":"caltex-ws-70308","name":"NH Performance Auto Servicing","brand":"caltex-workshop","country_code":"MY","lat":4.6319842,"lng":101.0824953,"address":"No. 2, Laluan Kangsar 5, Jalan Kangsar","city":"Ipoh","state":"Perak","postcode":"30100","country":"Malaysia","telephone":"60 5 506 4633","fuels":["Engine Oil","Fuel Additive"],"amenities":["Toilets","Service Bay","Tyres & Batteries","Premium Lounge"],"payments":[],"open24Hours":false,"hours":{"mon":"09:00 - 17:00","tue":"09:00 - 17:00","wed":"09:00 - 17:00","thu":"09:00 - 17:00","fri":"09:00 - 17:00","sat":"09:00 - 17:00","sun":"09:00 - 17:00"}},{"id":"caltex-ws-70309","name":"Lee Hin Auto Services & Tyres Sdn Bhd","brand":"caltex-workshop","country_code":"MY","lat":5.2968575,"lng":100.4787372,"address":"36, LorongPermatang Tinggi Indah 1 Taman Permatang Tinggi Indah 14000 Bukit Mertajam,","city":"Bukit Mertajam","state":"Pulau Pinang","postcode":"14000","country":"Malaysia","telephone":"6012 486 0101","fuels":["Engine Oil","Fuel Additive"],"amenities":["Toilets","Service Bay","Tyres & Batteries","Premium Lounge"],"payments":[],"open24Hours":false,"hours":{"mon":"09:00 - 17:00","tue":"09:00 - 17:00","wed":"09:00 - 17:00","thu":"09:00 - 17:00","fri":"09:00 - 17:00","sat":"09:00 - 17:00","sun":"09:00 - 17:00"}},{"id":"caltex-ws-70310","name":"Perkhidmatan Tayar Gerik","brand":"caltex-workshop","country_code":"MY","lat":5.4615235,"lng":101.1357396,"address":"No.10A, Jalan Pusat Perindustrian Utama, Pusat Perindustrian Batu 2","city":"Gerik","state":"Perak","postcode":"33300","country":"Malaysia","telephone":"60 14 907 5622","fuels":["Engine Oil","Fuel Additive"],"amenities":["Toilets","Service Bay","Tyres & Batteries","Premium Lounge"],"payments":[],"open24Hours":false,"hours":{"mon":"09:30 - 19:00","tue":"09:30 - 19:00","wed":"09:30 - 19:00","thu":"09:30 - 19:00","fri":"09:30 - 19:00","sat":"09:30 - 19:00","sun":"09:30 - 19:00"}},{"id":"caltex-ws-70311","name":"Teong Huat Tyre Retreading","brand":"caltex-workshop","country_code":"MY","lat":5.3760163,"lng":100.5511052,"address":"No.216A Jalan Tunku Putra","city":"Kulim","state":"Kedah","postcode":"9000","country":"Malaysia","telephone":"604 490 7461","fuels":["Engine Oil","Fuel Additive"],"amenities":["Toilets","Service Bay","Tyres & Batteries","Premium Lounge"],"payments":[],"open24Hours":false,"hours":{"mon":"09:00 - 19:00","tue":"09:00 - 19:00","wed":"09:00 - 19:00","thu":"09:00 - 19:00","fri":"09:00 - 19:00","sat":"09:00 - 19:00","sun":"09:00 - 19:00"}},{"id":"caltex-ws-70312","name":"Tan Motors","brand":"caltex-workshop","country_code":"MY","lat":4.8028022,"lng":100.9837886,"address":"Lot 4099, No.12 Jalan Station","city":"Kuala Kangsar","state":"Perak","postcode":"33000","country":"Malaysia","telephone":"605 776 4163","fuels":["Engine Oil","Fuel Additive"],"amenities":["Toilets","Service Bay","Tyres & Batteries","Premium Lounge"],"payments":[],"open24Hours":false,"hours":{"mon":"09:00 - 17:00","tue":"09:00 - 17:00","wed":"09:00 - 17:00","thu":"09:00 - 17:00","fri":"09:00 - 17:00","sat":"09:00 - 17:00","sun":"09:00 - 17:00"}},{"id":"caltex-ws-70313","name":"Tayar & Bateri Yiap Hong","brand":"caltex-workshop","country_code":"MY","lat":5.8194723,"lng":100.4750423,"address":"NO. 7, Jln Raya, Taman Gurun","city":"Gurun","state":"Perak","postcode":"31400","country":"Malaysia","telephone":"604 468 4335","fuels":["Engine Oil","Fuel Additive"],"amenities":["Toilets","Service Bay","Tyres & Batteries","Premium Lounge"],"payments":[],"open24Hours":false,"hours":{"mon":"09:00 - 17:00","tue":"09:00 - 17:00","wed":"09:00 - 17:00","thu":"09:00 - 17:00","fri":"09:00 - 17:00","sat":"09:00 - 17:00","sun":"09:00 - 17:00"}},{"id":"caltex-ws-70314","name":"KRYY Auto","brand":"caltex-workshop","country_code":"MY","lat":5.5056922,"lng":100.5352386,"address":"No.831, Jalan Lagenda 9/2,Taman Lagenda","city":"Padang Serai","state":"Kedah","postcode":"9400","country":"Malaysia","telephone":"6012 465 5024","fuels":["Engine Oil","Fuel Additive"],"amenities":["Toilets","Service Bay","Tyres & Batteries","Premium Lounge"],"payments":[],"open24Hours":false,"hours":{"mon":"09:30 - 19:00","tue":"09:30 - 19:00","wed":"09:30 - 19:00","thu":"09:30 - 19:00","fri":"09:30 - 19:00","sat":"09:30 - 19:00","sun":"09:30 - 19:00"}},{"id":"caltex-ws-70315","name":"Beng Tyre & Battery Service Centre","brand":"caltex-workshop","country_code":"MY","lat":5.6773004,"lng":100.9140538,"address":"No.1, Jalan Mahmud","city":"Baling","state":"Kedah","postcode":"9100","country":"Malaysia","telephone":"604 470 1268","fuels":["Engine Oil","Fuel Additive"],"amenities":["Toilets","Service Bay","Tyres & Batteries","Premium Lounge"],"payments":[],"open24Hours":false,"hours":{"mon":"10:00 - 17:00","tue":"10:00 - 17:00","wed":"10:00 - 17:00","thu":"10:00 - 17:00","fri":"10:00 - 17:00","sat":"10:00 - 17:00","sun":"10:00 - 17:00"}},{"id":"caltex-ws-70316","name":"Wan Seng Motor","brand":"caltex-workshop","country_code":"MY","lat":5.3350941,"lng":100.4640991,"address":"No.18, Mukim 14 Bukit Minyak","city":"Bukit Mertajam","state":"Pulau Pinang","postcode":"14000","country":"Malaysia","telephone":"6012 530 3980","fuels":["Engine Oil","Fuel Additive"],"amenities":["Toilets","Service Bay","Tyres & Batteries","Premium Lounge"],"payments":[],"open24Hours":false,"hours":{"mon":"09:00 - 17:00","tue":"09:00 - 17:00","wed":"09:00 - 17:00","thu":"09:00 - 17:00","fri":"09:00 - 17:00","sat":"09:00 - 17:00","sun":"09:00 - 17:00"}},{"id":"caltex-ws-70317","name":"Yong Xing Tyres Trading","brand":"caltex-workshop","country_code":"MY","lat":5.0159593,"lng":100.5298716,"address":"No. 1, Jalan Serai Muda 1, Taman Serai Muda","city":"Bagan Serai","state":"Perak","postcode":"34300","country":"Malaysia","telephone":"605 721 5191","fuels":["Engine Oil","Fuel Additive"],"amenities":["Toilets","Service Bay","Tyres & Batteries","Premium Lounge"],"payments":[],"open24Hours":false,"hours":{"mon":"09:00 - 19:00","tue":"09:00 - 19:00","wed":"09:00 - 19:00","thu":"09:00 - 19:00","fri":"09:00 - 19:00","sat":"09:00 - 19:00","sun":"09:00 - 19:00"}},{"id":"caltex-ws-70318","name":"Khoon Seng Tyres & Batteries Sdn Bhd","brand":"caltex-workshop","country_code":"MY","lat":6.2669996,"lng":100.4146186,"address":"116, Jalan Masjid","city":"Jitra","state":"Kedah","postcode":"6000","country":"Malaysia","telephone":"604 917 1401","fuels":["Engine Oil","Fuel Additive"],"amenities":["Toilets","Service Bay","Tyres & Batteries","Premium Lounge"],"payments":[],"open24Hours":false,"hours":{"mon":"09:00 - 18:00","tue":"09:00 - 18:00","wed":"09:00 - 18:00","thu":"09:00 - 18:00","fri":"09:00 - 18:00","sat":"09:00 - 18:00","sun":"09:00 - 18:00"}},{"id":"caltex-ws-70319","name":"Bengkel Gerik","brand":"caltex-workshop","country_code":"MY","lat":5.4372992,"lng":101.1257618,"address":"No. 1, Taman Selamat","city":"Gerik","state":"Perak","postcode":"33000","country":"Malaysia","telephone":"605 791 6195","fuels":["Engine Oil","Fuel Additive"],"amenities":["Toilets","Service Bay","Tyres & Batteries","Premium Lounge"],"payments":[],"open24Hours":false,"hours":{"mon":"09:00 - 17:00","tue":"09:00 - 17:00","wed":"09:00 - 17:00","thu":"09:00 - 17:00","fri":"09:00 - 17:00","sat":"09:00 - 17:00","sun":"09:00 - 17:00"}},{"id":"caltex-ws-70320","name":"Pusat Servis Kereta H&J","brand":"caltex-workshop","country_code":"MY","lat":5.4380027,"lng":100.8805787,"address":"No.92 Jalan Cengal 1/5 Taman Cengal Indah 3","city":"Kulim","state":"Kedah","postcode":"9000","country":"Malaysia","telephone":"6016 457 7578","fuels":["Engine Oil","Fuel Additive"],"amenities":["Toilets","Service Bay","Tyres & Batteries","Premium Lounge"],"payments":[],"open24Hours":false,"hours":{"mon":"09:30 - 20:00","tue":"09:30 - 20:00","wed":"09:30 - 20:00","thu":"09:30 - 20:00","fri":"09:30 - 20:00","sat":"09:30 - 20:00","sun":"09:30 - 20:00"}},{"id":"caltex-ws-70321","name":"Seng Huat (M) Sdn Bhd","brand":"caltex-workshop","country_code":"MY","lat":4.842809,"lng":100.7234139,"address":"No.161, Jalan Simpang","city":"Taiping","state":"Perak","postcode":"34000","country":"Malaysia","telephone":"605 807 4566","fuels":["Engine Oil","Fuel Additive"],"amenities":["Toilets","Service Bay","Tyres & Batteries","Premium Lounge"],"payments":[],"open24Hours":false,"hours":{"mon":"09:00 - 18:00","tue":"09:00 - 18:00","wed":"09:00 - 18:00","thu":"09:00 - 18:00","fri":"09:00 - 18:00","sat":"09:00 - 18:00","sun":"09:00 - 18:00"}},{"id":"caltex-ws-70322","name":"Jia Qing Motor Workshop","brand":"caltex-workshop","country_code":"MY","lat":5.2305762,"lng":100.4906173,"address":"No.2 Jalan Besar, Taman Gamelan","city":"Sungai Bakap","state":"Pulau Pinang","postcode":"14200","country":"Malaysia","telephone":"60 12 412 3197","fuels":["Engine Oil","Fuel Additive"],"amenities":["Toilets","Service Bay","Tyres & Batteries","Premium Lounge"],"payments":[],"open24Hours":false,"hours":{"mon":"09:00 - 17:00","tue":"09:00 - 17:00","wed":"09:00 - 17:00","thu":"09:00 - 17:00","fri":"09:00 - 17:00","sat":"09:00 - 17:00","sun":"09:00 - 17:00"}},{"id":"caltex-ws-70323","name":"Leong Bersaudara","brand":"caltex-workshop","country_code":"MY","lat":5.6757053,"lng":100.9167655,"address":"No.65, Jalan Kroh","city":"Baling","state":"Kedah","postcode":"9100","country":"Malaysia","telephone":"6019 458 1283","fuels":["Engine Oil","Fuel Additive"],"amenities":["Toilets","Service Bay","Tyres & Batteries","Premium Lounge"],"payments":[],"open24Hours":false,"hours":{"mon":"10:00 - 17:00","tue":"10:00 - 17:00","wed":"10:00 - 17:00","thu":"10:00 - 17:00","fri":"10:00 - 17:00","sat":"10:00 - 17:00","sun":"10:00 - 17:00"}},{"id":"caltex-ws-70324","name":"J And J Auto Service","brand":"caltex-workshop","country_code":"MY","lat":4.6419923,"lng":101.1070973,"address":"No.11, Laluan Tasik Perdana 1 Medan Tasik Perdana 30100 Ipoh","city":"Ipoh","state":"Perak","postcode":"30100","country":"Malaysia","telephone":"6016 551 8665","fuels":["Engine Oil","Fuel Additive"],"amenities":["Toilets","Service Bay","Tyres & Batteries","Premium Lounge"],"payments":[],"open24Hours":false,"hours":{"mon":"09:00 - 19:00","tue":"09:00 - 19:00","wed":"09:00 - 19:00","thu":"09:00 - 19:00","fri":"09:00 - 19:00","sat":"09:00 - 19:00","sun":"09:00 - 19:00"}},{"id":"caltex-ws-70325","name":"H Two O Auto Garage","brand":"caltex-workshop","country_code":"MY","lat":5.3549527,"lng":100.5288948,"address":"No. 83, Jalan Kempas 1/5, Taman Kempas Indah","city":"Kulim","state":"Kedah","postcode":"9000","country":"Malaysia","telephone":"6012 459 6861","fuels":["Engine Oil","Fuel Additive"],"amenities":["Toilets","Service Bay","Tyres & Batteries","Premium Lounge"],"payments":[],"open24Hours":false,"hours":{"mon":"09:00 - 17:00","tue":"09:00 - 17:00","wed":"09:00 - 17:00","thu":"09:00 - 17:00","fri":"09:00 - 17:00","sat":"09:00 - 17:00","sun":"09:00 - 17:00"}},{"id":"caltex-ws-70326","name":"Bengkel Membaiki Kereta Kheng Hong","brand":"caltex-workshop","country_code":"MY","lat":4.8913483,"lng":100.7279723,"address":"Lot 6671, Jalan Stesyen 34600 Kamunting","city":"Kamunting","state":"Perak","postcode":"34600","country":"Malaysia","telephone":"6012 516 5075","fuels":["Engine Oil","Fuel Additive"],"amenities":["Toilets","Service Bay","Tyres & Batteries","Premium Lounge"],"payments":[],"open24Hours":false,"hours":{"mon":"10:00 - 20:00","tue":"10:00 - 20:00","wed":"10:00 - 20:00","thu":"10:00 - 20:00","fri":"10:00 - 20:00","sat":"10:00 - 20:00","sun":"10:00 - 20:00"}},{"id":"caltex-ws-70327","name":"U-Lek Motor Sdn Bhd","brand":"caltex-workshop","country_code":"MY","lat":6.3283803,"lng":99.8171623,"address":"No.30B, Kampung Sungai Menghulu,  Batu 2, Mukim Kuah,  07000, Langkawi  Kedah,","city":"Langkawi","state":"Kedah","postcode":"7000","country":"Malaysia","telephone":"604 966 9185","fuels":["Engine Oil","Fuel Additive"],"amenities":["Toilets","Service Bay","Tyres & Batteries","Premium Lounge"],"payments":[],"open24Hours":false,"hours":{"mon":"09:00 - 18:00","tue":"09:00 - 18:00","wed":"09:00 - 18:00","thu":"09:00 - 18:00","fri":"09:00 - 18:00","sat":"09:00 - 18:00","sun":"09:00 - 18:00"}},{"id":"caltex-ws-70328","name":"SK Tan Auto Services","brand":"caltex-workshop","country_code":"MY","lat":4.6315082,"lng":101.0836627,"address":"No.7, Laluan Kangsar 9 Jalan Kuala Kangsar Kawasan Perindustrian Vaiva,  30010 Ipoh","city":"Ipoh","state":"Perak","postcode":"30010","country":"Malaysia","telephone":"605 506 2236","fuels":["Engine Oil","Fuel Additive"],"amenities":["Toilets","Service Bay","Tyres & Batteries","Premium Lounge"],"payments":[],"open24Hours":false,"hours":{"mon":"09:00 - 18:00","tue":"09:00 - 18:00","wed":"09:00 - 18:00","thu":"09:00 - 18:00","fri":"09:00 - 18:00","sat":"09:00 - 18:00","sun":"09:00 - 18:00"}},{"id":"caltex-ws-70329","name":"Sun Huat Tyre","brand":"caltex-workshop","country_code":"MY","lat":5.1177874,"lng":100.482626,"address":"No. 9 & 10, Jalan Keli Taman Sri Tenggara Jalan Taiping, 34200 Parit Buntar","city":"Parit Buntar","state":"Perak","postcode":"34200","country":"Malaysia","telephone":"60 5 716 1772","fuels":["Engine Oil","Fuel Additive"],"amenities":["Toilets","Service Bay","Tyres & Batteries","Premium Lounge"],"payments":[],"open24Hours":false,"hours":{"mon":"09:00 - 19:00","tue":"09:00 - 19:00","wed":"09:00 - 19:00","thu":"09:00 - 19:00","fri":"09:00 - 19:00","sat":"09:00 - 19:00","sun":"09:00 - 19:00"}},{"id":"caltex-ws-70330","name":"Tatt Sin Auto Service Center","brand":"caltex-workshop","country_code":"MY","lat":5.2966945,"lng":100.4627408,"address":"3278, Jalan Rozhan, 14000 Bukit Mertajam","city":"Bukit Mertajam","state":"Pulau Pinang","postcode":"14000","country":"Malaysia","telephone":"60125864419","fuels":["Engine Oil","Fuel Additive"],"amenities":["Toilets","Service Bay","Tyres & Batteries","Premium Lounge"],"payments":[],"open24Hours":false,"hours":{"mon":"09:00 - 19:00","tue":"09:00 - 19:00","wed":"09:00 - 19:00","thu":"09:00 - 19:00","fri":"09:00 - 19:00","sat":"09:00 - 19:00","sun":"09:00 - 19:00"}},{"id":"caltex-ws-70331","name":"WS Wei Sheng Auto Service","brand":"caltex-workshop","country_code":"MY","lat":5.651616,"lng":100.5060656,"address":"B132,Jalan Kelab Cinta Sayang, Taman Ria Indah","city":"Sungai Petani","state":"Kedah","postcode":"8000","country":"Malaysia","telephone":"60 4423 7734","fuels":["Engine Oil","Fuel Additive"],"amenities":["Toilets","Service Bay","Tyres & Batteries","Premium Lounge"],"payments":[],"open24Hours":false,"hours":{"mon":"09:00 - 19:00","tue":"09:00 - 19:00","wed":"09:00 - 19:00","thu":"09:00 - 19:00","fri":"09:00 - 19:00","sat":"09:00 - 19:00","sun":"09:00 - 19:00"}},{"id":"caltex-ws-70332","name":"S Main Road Tyre Service","brand":"caltex-workshop","country_code":"MY","lat":4.2963823,"lng":100.7520277,"address":"No. 355 & 357, Main Road, Taman Biru","city":"Ayer Tawar","state":"Perak","postcode":"32400","country":"Malaysia","telephone":"605672 2180","fuels":["Engine Oil","Fuel Additive"],"amenities":["Toilets","Service Bay","Tyres & Batteries","Premium Lounge"],"payments":[],"open24Hours":false,"hours":{"mon":"09:00 - 17:00","tue":"09:00 - 17:00","wed":"09:00 - 17:00","thu":"09:00 - 17:00","fri":"09:00 - 17:00","sat":"09:00 - 17:00","sun":"09:00 - 17:00"}},{"id":"caltex-ws-70333","name":"Best Fortune Auto Centre","brand":"caltex-workshop","country_code":"MY","lat":5.6165323,"lng":100.4933943,"address":"No. 214, Jalan Perdana 3/1, Bandar Perdana","city":"Sungai Petani","state":"Kedah","postcode":"8000","country":"Malaysia","telephone":"6016 418 1511","fuels":["Engine Oil","Fuel Additive"],"amenities":["Toilets","Service Bay","Tyres & Batteries","Premium Lounge"],"payments":[],"open24Hours":false,"hours":{"mon":"09:00 - 19:00","tue":"09:00 - 19:00","wed":"09:00 - 19:00","thu":"09:00 - 19:00","fri":"09:00 - 19:00","sat":"09:00 - 19:00","sun":"09:00 - 19:00"}},{"id":"caltex-ws-70334","name":"Weng Ho Enterprise","brand":"caltex-workshop","country_code":"MY","lat":4.3246497,"lng":99.6402068,"address":"No. 151 Bawah, Jalan Besar, Medan Sri Sentosa","city":"Ayer Tawar","state":"Perak","postcode":"32400","country":"Malaysia","telephone":"6012 615 8358","fuels":["Engine Oil","Fuel Additive"],"amenities":["Toilets","Service Bay","Tyres & Batteries","Premium Lounge"],"payments":[],"open24Hours":false,"hours":{"mon":"10:00 - 20:00","tue":"10:00 - 20:00","wed":"10:00 - 20:00","thu":"10:00 - 20:00","fri":"10:00 - 20:00","sat":"10:00 - 20:00","sun":"10:00 - 20:00"}},{"id":"caltex-ws-70335","name":"Heng Yip Car Centre","brand":"caltex-workshop","country_code":"MY","lat":4.6327342,"lng":101.12931,"address":"No. 98, Lorong Bercham Indah 31400 Ipoh","city":"Ipoh","state":"Perak","postcode":"31400","country":"Malaysia","telephone":"60 5 548 8193","fuels":["Engine Oil","Fuel Additive"],"amenities":["Toilets","Service Bay","Tyres & Batteries","Premium Lounge"],"payments":[],"open24Hours":false,"hours":{"mon":"09:00 - 18:00","tue":"09:00 - 18:00","wed":"09:00 - 18:00","thu":"09:00 - 18:00","fri":"09:00 - 18:00","sat":"09:00 - 18:00","sun":"09:00 - 18:00"}},{"id":"caltex-ws-70336","name":"Smart Excel Auto Service","brand":"caltex-workshop","country_code":"MY","lat":5.2786896,"lng":100.4620801,"address":"No. 59, Jalan Tambun Indah 1","city":"Simpang Ampat","state":"Pulau Pinang","postcode":"14100","country":"Malaysia","telephone":"6012 564 6913","fuels":["Engine Oil","Fuel Additive"],"amenities":["Toilets","Service Bay","Tyres & Batteries","Premium Lounge"],"payments":[],"open24Hours":false,"hours":{"mon":"09:00 - 17:00","tue":"09:00 - 17:00","wed":"09:00 - 17:00","thu":"09:00 - 17:00","fri":"09:00 - 17:00","sat":"09:00 - 17:00","sun":"09:00 - 17:00"}},{"id":"caltex-ws-70337","name":"U-Lek (Sg. Petani) Sdn Bhd","brand":"caltex-workshop","country_code":"MY","lat":5.6076893,"lng":100.4710922,"address":"No. 5, Padang Temusu, Sg. Pasir, Sungai Petani","city":"Sungai Petani","state":"Kedah","postcode":"8000","country":"Malaysia","telephone":"604 431 2679","fuels":["Engine Oil","Fuel Additive"],"amenities":["Toilets","Service Bay","Tyres & Batteries","Premium Lounge"],"payments":[],"open24Hours":false,"hours":{"mon":"09:00 - 18:00","tue":"09:00 - 18:00","wed":"09:00 - 18:00","thu":"09:00 - 18:00","fri":"09:00 - 18:00","sat":"09:00 - 18:00","sun":"09:00 - 18:00"}},{"id":"caltex-ws-70338","name":"Ramli Motor Workshop Sdn Bhd","brand":"caltex-workshop","country_code":"MY","lat":5.6747899,"lng":100.9209238,"address":"Lot 995, Bendang Sera, Jalan Pengkalan Hulu","city":"Baling","state":"Kedah","postcode":"9100","country":"Malaysia","telephone":"60 4 470 3681","fuels":["Engine Oil","Fuel Additive"],"amenities":["Toilets","Service Bay","Tyres & Batteries","Premium Lounge"],"payments":[],"open24Hours":false,"hours":{"mon":"09:00 - 18:30","tue":"09:00 - 18:30","wed":"09:00 - 18:30","thu":"09:00 - 18:30","fri":"09:00 - 18:30","sat":"09:00 - 18:30","sun":"09:00 - 18:30"}},{"id":"caltex-ws-70339","name":"Membaiki Motokar Tong Thian Huat","brand":"caltex-workshop","country_code":"MY","lat":4.443552,"lng":100.626259,"address":"No.7, Taman Desa Pantai","city":"Pantai Remis","state":"Perak","postcode":"34900","country":"Malaysia","telephone":"6019 558 8330","fuels":["Engine Oil","Fuel Additive"],"amenities":["Toilets","Service Bay","Tyres & Batteries","Premium Lounge"],"payments":[],"open24Hours":false,"hours":{"mon":"09:30 - 19:30","tue":"09:30 - 19:30","wed":"09:30 - 19:30","thu":"09:30 - 19:30","fri":"09:30 - 19:30","sat":"09:30 - 19:30","sun":"09:30 - 19:30"}},{"id":"caltex-ws-70340","name":"Sin Lee Hing Auto Services And Tyres Sdn Bhd","brand":"caltex-workshop","country_code":"MY","lat":5.2971711,"lng":100.4791871,"address":"No. 36, Lorong Permatang Tinggi Indah 1, Taman Permatang Tinggi Indah","city":"Bukit Mertajam","state":"Pulau Pinang","postcode":"14000","country":"Malaysia","telephone":"604 587 3182","fuels":["Engine Oil","Fuel Additive"],"amenities":["Toilets","Service Bay","Tyres & Batteries","Premium Lounge"],"payments":[],"open24Hours":false,"hours":{"mon":"09:00 - 17:00","tue":"09:00 - 17:00","wed":"09:00 - 17:00","thu":"09:00 - 17:00","fri":"09:00 - 17:00","sat":"09:00 - 17:00","sun":"09:00 - 17:00"}},{"id":"caltex-ws-70341","name":"Tat Guan Workshop","brand":"caltex-workshop","country_code":"MY","lat":6.1665595,"lng":100.5018224,"address":"Lot 727, Batu 11, Pokok Sena","city":"Pokok Sena","state":"Kedah","postcode":"6400","country":"Malaysia","telephone":"60 4 782 2451","fuels":["Engine Oil","Fuel Additive"],"amenities":["Toilets","Service Bay","Tyres & Batteries","Premium Lounge"],"payments":[],"open24Hours":false,"hours":{"mon":"09:00 - 17:00","tue":"09:00 - 17:00","wed":"09:00 - 17:00","thu":"09:00 - 17:00","fri":"09:00 - 17:00","sat":"09:00 - 17:00","sun":"09:00 - 17:00"}},{"id":"caltex-ws-70342","name":"Li Wei Enterprise","brand":"caltex-workshop","country_code":"MY","lat":5.3353288,"lng":100.2188318,"address":"No. 12, Genting Village Area","city":"Balik Pulau","state":"Pulau Pinang","postcode":"11000","country":"Malaysia","telephone":"6016 437 2132","fuels":["Engine Oil","Fuel Additive"],"amenities":["Toilets","Service Bay","Tyres & Batteries","Premium Lounge"],"payments":[],"open24Hours":false,"hours":{"mon":"09:00 - 17:00","tue":"09:00 - 17:00","wed":"09:00 - 17:00","thu":"09:00 - 17:00","fri":"09:00 - 17:00","sat":"09:00 - 17:00","sun":"09:00 - 17:00"}},{"id":"caltex-ws-70343","name":"Yong Xing Tyres Trading","brand":"caltex-workshop","country_code":"MY","lat":5.015954,"lng":100.5320603,"address":"No.1, Jalan Serai Muda 1, Taman Serai Muda","city":"Bagan Serai","state":"Perak","postcode":"34300","country":"Malaysia","telephone":"6012 440 5665","fuels":["Engine Oil","Fuel Additive"],"amenities":["Toilets","Service Bay","Tyres & Batteries","Premium Lounge"],"payments":[],"open24Hours":false,"hours":{"mon":"09:00 - 19:00","tue":"09:00 - 19:00","wed":"09:00 - 19:00","thu":"09:00 - 19:00","fri":"09:00 - 19:00","sat":"09:00 - 19:00","sun":"09:00 - 19:00"}},{"id":"caltex-ws-70344","name":"Penaria Enterprise","brand":"caltex-workshop","country_code":"MY","lat":5.6063496,"lng":100.6550488,"address":"Lot 2534, Tepi Bangunan Baru MDB, Pekan Lama, Kuala Ketil","city":"Kuala Ketil","state":"Kedah","postcode":"9300","country":"Malaysia","telephone":"604 443 1330","fuels":["Engine Oil","Fuel Additive"],"amenities":["Toilets","Service Bay","Tyres & Batteries","Premium Lounge"],"payments":[],"open24Hours":false,"hours":{"mon":"09:00 - 17:00","tue":"09:00 - 17:00","wed":"09:00 - 17:00","thu":"09:00 - 17:00","fri":"09:00 - 17:00","sat":"09:00 - 17:00","sun":"09:00 - 17:00"}},{"id":"caltex-ws-70345","name":"KIAN ANN CAR SERVICE CENTRE","brand":"caltex-workshop","country_code":"MY","lat":3.18667,"lng":101.7000513,"address":"LOT 8, JALAN SETAPAK, 53000, KUALA LUMPUR","city":"Setapak","state":"W.P. Kuala Lumpur","postcode":"53000","country":"Malaysia","telephone":"60 3 4021 0630","fuels":["Engine Oil","Fuel Additive"],"amenities":["Toilets","Service Bay","Tyres & Batteries","Premium Lounge"],"payments":[],"open24Hours":false,"hours":{"mon":"09:00 - 19:00","tue":"09:00 - 19:00","wed":"09:00 - 19:00","thu":"09:00 - 19:00","fri":"09:00 - 19:00","sat":"09:00 - 19:00","sun":"09:00 - 19:00"}},{"id":"caltex-ws-70346","name":"OSAGA SERVICE CENTRE SDN BHD (KAJANG)","brand":"caltex-workshop","country_code":"MY","lat":2.976819,"lng":101.7777792,"address":"NO.1, JALAN KAJANG MEWAH 4, TAMAN KAJANG MEWAH","city":"Kajang","state":"Selangor","postcode":"43000","country":"Malaysia","telephone":"60 3 8737 9968","fuels":["Engine Oil","Fuel Additive"],"amenities":["Toilets","Service Bay","Tyres & Batteries","AC Lounge","Premium Lounge"],"payments":[],"open24Hours":false,"hours":{"mon":"09:00 - 18:00","tue":"09:00 - 18:00","wed":"09:00 - 18:00","thu":"09:00 - 18:00","fri":"09:00 - 18:00","sat":"09:00 - 18:00","sun":"09:00 - 18:00"}},{"id":"caltex-ws-70347","name":"CHAI SAFETY AUTO COOLER SERVICE CENTRE","brand":"caltex-workshop","country_code":"MY","lat":3.1199949,"lng":101.604981,"address":"NO. 43, JALAN SS 2/75","city":"Petaling Jaya","state":"Selangor","postcode":"47300","country":"Malaysia","telephone":"60122895690","fuels":["Engine Oil","Fuel Additive"],"amenities":["Toilets","Service Bay","Tyres & Batteries","AC Lounge","Premium Lounge"],"payments":[],"open24Hours":false,"hours":{"mon":"09:00 - 17:00","tue":"09:00 - 17:00","wed":"09:00 - 17:00","thu":"09:00 - 17:00","fri":"09:00 - 17:00","sat":"09:00 - 17:00","sun":"09:00 - 17:00"}},{"id":"caltex-ws-70348","name":"KAHWHEEL AUTO SERVICE CENTRE","brand":"caltex-workshop","country_code":"MY","lat":3.2008835,"lng":101.6310008,"address":"NO. 1, JALAN BURUNG JENTAYU, TAMAN BUKIT MALURI, KEPONG","city":"Kepong","state":"W.P. Kuala Lumpur","postcode":"52100","country":"Malaysia","telephone":"60123668212","fuels":["Engine Oil","Fuel Additive"],"amenities":["Toilets","Service Bay","Tyres & Batteries","Premium Lounge"],"payments":[],"open24Hours":false,"hours":{"mon":"09:00 - 17:00","tue":"09:00 - 17:00","wed":"09:00 - 17:00","thu":"09:00 - 17:00","fri":"09:00 - 17:00","sat":"09:00 - 17:00","sun":"09:00 - 17:00"}},{"id":"caltex-ws-70349","name":"AUTO WHEELS TRADING","brand":"caltex-workshop","country_code":"MY","lat":3.1369119,"lng":101.7090777,"address":"NO. 374, JALAN PUDU","city":"Pudu","state":"W.P. Kuala Lumpur","postcode":"55100","country":"Malaysia","telephone":"60 3 2143 1511","fuels":["Engine Oil","Fuel Additive"],"amenities":["Toilets","Service Bay","Tyres & Batteries","AC Lounge","Premium Lounge"],"payments":[],"open24Hours":false,"hours":{"mon":"09:00 - 20:00","tue":"09:00 - 20:00","wed":"09:00 - 20:00","thu":"09:00 - 20:00","fri":"09:00 - 20:00","sat":"09:00 - 20:00","sun":"09:00 - 20:00"}},{"id":"caltex-ws-70350","name":"JANSONN AUTO SERVICE","brand":"caltex-workshop","country_code":"MY","lat":3.2372782,"lng":101.6559774,"address":"NO.27, JALAN TIB 1/11","city":"Batu Caves","state":"Selangor","postcode":"68100","country":"Malaysia","telephone":"603 6189 0928","fuels":["Engine Oil","Fuel Additive"],"amenities":["Toilets","Service Bay","Tyres & Batteries","Premium Lounge"],"payments":[],"open24Hours":false,"hours":{"mon":"09:00 - 19:00","tue":"09:00 - 19:00","wed":"09:00 - 19:00","thu":"09:00 - 19:00","fri":"09:00 - 19:00","sat":"09:00 - 19:00","sun":"09:00 - 19:00"}},{"id":"caltex-ws-70351","name":"N POWER AUTO SDN BHD","brand":"caltex-workshop","country_code":"MY","lat":3.4052432,"lng":101.5568799,"address":"87, JALAN JENJARUM 3B, SEKSYEN BB9","city":"Serendah","state":"Selangor","postcode":"48300","country":"Malaysia","telephone":"60162627185","fuels":["Engine Oil","Fuel Additive"],"amenities":["Toilets","Service Bay","Tyres & Batteries","AC Lounge","Premium Lounge"],"payments":[],"open24Hours":false,"hours":{"mon":"09:00 - 19:30","tue":"09:00 - 19:30","wed":"09:00 - 19:30","thu":"09:00 - 19:30","fri":"09:00 - 19:30","sat":"09:00 - 19:30","sun":"09:00 - 19:30"}},{"id":"caltex-ws-70352","name":"HIAP SENG AIR-COND & BATTERY SERVICE","brand":"caltex-workshop","country_code":"MY","lat":3.072173,"lng":101.4111033,"address":"NO. 1, JALAN PENGASAH 3, OFF BATU 3 1/2, JALAN KAPAR","city":"Klang","state":"Selangor","postcode":"42100","country":"Malaysia","telephone":"603 3290 5277","fuels":["Engine Oil","Fuel Additive"],"amenities":["Toilets","Service Bay","Tyres & Batteries","Premium Lounge"],"payments":[],"open24Hours":false,"hours":{"mon":"09:00 - 17:00","tue":"09:00 - 17:00","wed":"09:00 - 17:00","thu":"09:00 - 17:00","fri":"09:00 - 17:00","sat":"09:00 - 17:00","sun":"09:00 - 17:00"}},{"id":"caltex-ws-70353","name":"E BRAKERS MOTORSPORT SDN BHD","brand":"caltex-workshop","country_code":"MY","lat":3.0841252,"lng":101.402389,"address":"NO. 20 & 22, JALAN SG KERAMAT 1A OFF BATU 5, JALAN KAPAR","city":"Klang","state":"Selangor","postcode":"42100","country":"Malaysia","telephone":"60166385765","fuels":["Engine Oil","Fuel Additive"],"amenities":["Toilets","Service Bay","Tyres & Batteries","AC Lounge","Premium Lounge"],"payments":[],"open24Hours":false,"hours":{"mon":"09:30 - 18:30","tue":"09:30 - 18:30","wed":"09:30 - 18:30","thu":"09:30 - 18:30","fri":"09:30 - 18:30","sat":"09:30 - 18:30","sun":"09:30 - 18:30"}},{"id":"caltex-ws-70354","name":"HW ONE AUTOMOBIL","brand":"caltex-workshop","country_code":"MY","lat":2.99929,"lng":101.4297402,"address":"NO. 1, LORONG BATU NILAM 34C, BANDAR BUKIT TINGGI 2","city":"Klang","state":"Selangor","postcode":"41200","country":"Malaysia","telephone":"60 3 3323 5783","fuels":["Engine Oil","Fuel Additive"],"amenities":["Toilets","Service Bay","Tyres & Batteries","Premium Lounge"],"payments":[],"open24Hours":false,"hours":{"mon":"09:00 - 17:00","tue":"09:00 - 17:00","wed":"09:00 - 17:00","thu":"09:00 - 17:00","fri":"09:00 - 17:00","sat":"09:00 - 17:00","sun":"09:00 - 17:00"}},{"id":"caltex-ws-70355","name":"LIONG L & L AUTO SERVICE","brand":"caltex-workshop","country_code":"MY","lat":2.9581074,"lng":101.7399332,"address":"NO. 41, JALAN JERNANG JAYA 1, TAMN JER","city":"Kajang","state":"Selangor","postcode":"43000","country":"Malaysia","telephone":"60 3 8912 2892","fuels":["Engine Oil","Fuel Additive"],"amenities":["Toilets","Service Bay","Tyres & Batteries","Premium Lounge"],"payments":[],"open24Hours":false,"hours":{"mon":"09:00 - 17:00","tue":"09:00 - 17:00","wed":"09:00 - 17:00","thu":"09:00 - 17:00","fri":"09:00 - 17:00","sat":"09:00 - 17:00","sun":"09:00 - 17:00"}},{"id":"caltex-ws-70356","name":"FOOK SOON ACCESSORIES & TYRES SERVICES CENTRE","brand":"caltex-workshop","country_code":"MY","lat":3.5645426,"lng":101.5193422,"address":"23, Jalan Kamarudin, Pekan Kuala Kubu Bharu","city":"Kuala Kubu Bharu","state":"Selangor","postcode":"44000","country":"Malaysia","telephone":"603 60645100","fuels":["Engine Oil","Fuel Additive"],"amenities":["Toilets","Service Bay","Tyres & Batteries","Premium Lounge"],"payments":[],"open24Hours":false,"hours":{"mon":"09:00 - 18:30","tue":"09:00 - 18:30","wed":"09:00 - 18:30","thu":"09:00 - 18:30","fri":"09:00 - 18:30","sat":"09:00 - 18:30","sun":"09:00 - 18:30"}},{"id":"caltex-ws-70357","name":"GENESIS AUTO CAR SERVICES (PANDAN INDAH SDN BHD)","brand":"caltex-workshop","country_code":"MY","lat":3.1210215,"lng":101.745809,"address":"NO. 1G, JALAN PANDAN INDAH 4/6","city":"Pandan Indah","state":"W.P. Kuala Lumpur","postcode":"55100","country":"Malaysia","telephone":"60 3 4280 2828","fuels":["Engine Oil","Fuel Additive"],"amenities":["Toilets","Service Bay","Tyres & Batteries","Premium Lounge"],"payments":[],"open24Hours":false,"hours":{"mon":"09:00 - 19:00","tue":"09:00 - 19:00","wed":"09:00 - 19:00","thu":"09:00 - 19:00","fri":"09:00 - 19:00","sat":"09:00 - 19:00","sun":"09:00 - 19:00"}},{"id":"caltex-ws-70358","name":"NEW ARROW STAR","brand":"caltex-workshop","country_code":"MY","lat":3.0657903,"lng":101.7439971,"address":"NO. 3, JALAN  1/154, TAMAN BUKIT ANGGERIK","city":"Cheras","state":"W.P. Kuala Lumpur","postcode":"56000","country":"Malaysia","telephone":"60 3 9100 3587","fuels":["Engine Oil","Fuel Additive"],"amenities":["Toilets","Service Bay","Tyres & Batteries","Premium Lounge"],"payments":[],"open24Hours":false,"hours":{"mon":"09:00 - 17:00","tue":"09:00 - 17:00","wed":"09:00 - 17:00","thu":"09:00 - 17:00","fri":"09:00 - 17:00","sat":"09:00 - 17:00","sun":"09:00 - 17:00"}},{"id":"caltex-ws-70359","name":"DAMANSARA KIM ELECTRICAL SERVICE","brand":"caltex-workshop","country_code":"MY","lat":3.1359719,"lng":101.6268052,"address":"NO. 16, JALAN SS 20/10, TAMAN DAMANSARA KIM","city":"Petaling Jaya","state":"Selangor","postcode":"47400","country":"Malaysia","telephone":"60 3 7710 1615","fuels":["Engine Oil","Fuel Additive"],"amenities":["Toilets","Service Bay","Tyres & Batteries","Premium Lounge"],"payments":[],"open24Hours":false,"hours":{"mon":"09:00 - 19:00","tue":"09:00 - 19:00","wed":"09:00 - 19:00","thu":"09:00 - 19:00","fri":"09:00 - 19:00","sat":"09:00 - 19:00","sun":"09:00 - 19:00"}},{"id":"caltex-ws-70360","name":"AH SOON SENG AUTO SERVICE & TRADING","brand":"caltex-workshop","country_code":"MY","lat":3.2413615,"lng":101.7004674,"address":"NO. 12,  JALAN SG 3/2, TAMAN SRI GOMBAK","city":"Batu Caves","state":"Selangor","postcode":"68100","country":"Malaysia","telephone":"60 3 4031 4134","fuels":["Engine Oil","Fuel Additive"],"amenities":["Toilets","Service Bay","Tyres & Batteries","Premium Lounge"],"payments":[],"open24Hours":false,"hours":{"mon":"09:00 - 17:00","tue":"09:00 - 17:00","wed":"09:00 - 17:00","thu":"09:00 - 17:00","fri":"09:00 - 17:00","sat":"09:00 - 17:00","sun":"09:00 - 17:00"}},{"id":"caltex-ws-70361","name":"SIN HUP HUAT","brand":"caltex-workshop","country_code":"MY","lat":5.27976058597282,"lng":115.242998125218,"address":"U0247, JALAN KEMAJUAN, BANDAR LABUAN, 87000 LABUAN, WILAYAH PERSEKETUAN LABUAN","city":"Labuan","state":"W.P. Labuan","postcode":"87000","country":"Malaysia","telephone":"60197882751","fuels":["Engine Oil","Fuel Additive"],"amenities":["Toilets","Service Bay","Tyres & Batteries","Premium Lounge"],"payments":[],"open24Hours":false,"hours":{"mon":"08:00 - 17:00","tue":"08:00 - 17:00","wed":"08:00 - 17:00","thu":"08:00 - 17:00","fri":"08:00 - 17:00","sat":"08:00 - 17:00","sun":"08:00 - 17:00"}},{"id":"caltex-ws-70362","name":"Mottou Tyre & Auto Servicing","brand":"caltex-workshop","country_code":"MY","lat":5.37306888751383,"lng":116.185989113491,"address":"Jalan Keningau - Tambunan, Kampung Toboh Baru, 89000 Keningau, Sabah","city":"Keningau","state":"Sabah","postcode":"89000","country":"Malaysia","telephone":"60138599699","fuels":["Engine Oil","Fuel Additive"],"amenities":["Toilets","Service Bay","Tyres & Batteries","Premium Lounge"],"payments":[],"open24Hours":false,"hours":{"mon":"08:00 - 17:00","tue":"08:00 - 17:00","wed":"08:00 - 17:00","thu":"08:00 - 17:00","fri":"08:00 - 17:00","sat":"08:00 - 17:00","sun":"08:00 - 17:00"}},{"id":"caltex-ws-70363","name":"RC Car Diagnose TEST & Servicing","brand":"caltex-workshop","country_code":"MY","lat":6.89187712894802,"lng":116.849518386508,"address":"Batu 1, Jalan Paduka Mat Salleh, 89058 Kudat, Sabah","city":"Kudat","state":"Sabah","postcode":"89058","country":"Malaysia","telephone":"60178925776","fuels":["Engine Oil","Fuel Additive"],"amenities":["Toilets","Service Bay","Tyres & Batteries","Premium Lounge"],"payments":[],"open24Hours":false,"hours":{"mon":"08:00 - 17:00","tue":"08:00 - 17:00","wed":"08:00 - 17:00","thu":"08:00 - 17:00","fri":"08:00 - 17:00","sat":"08:00 - 17:00","sun":"08:00 - 17:00"}},{"id":"caltex-ws-70364","name":"Lee Perfect Autoparts Sdn Bhd","brand":"caltex-workshop","country_code":"MY","lat":5.87002478123061,"lng":116.058442454075,"address":"Lot 20 LOT 20, BDC Industrial Centre, Putatan, 88200 Kota Kinabalu, Sabah","city":"Kota Kinabalu","state":"Sabah","postcode":"88200","country":"Malaysia","telephone":"6011-18961111","fuels":["Engine Oil","Fuel Additive"],"amenities":["Toilets","Service Bay","Tyres & Batteries","Premium Lounge"],"payments":[],"open24Hours":false,"hours":{"mon":"08:00 - 18:00","tue":"08:00 - 18:00","wed":"08:00 - 18:00","thu":"08:00 - 18:00","fri":"08:00 - 18:00","sat":"08:00 - 18:00","sun":"08:00 - 18:00"}}]