[{"id":"shell-10125739","name":"SHELL BATIE","brand":"shell","country_code":"BF","lat":9.532,"lng":-2.55,"address":"A Batié","city":"Batié","state":"","postcode":"01 BP 569","country":"Burkina Faso","telephone":"+226 25 32 76 00","fuels":["Unleaded 95","Unleaded 91","Diesel","Unleaded 98","High Flow Diesel"],"amenities":["Convenience Store","Full Service","Toilets"],"payments":["Pay at Pump"],"open24Hours":false,"hours":null,"openStatusRaw":"closed","nextStatusChange":"2026-02-01T06:00:00.234Z"},{"id":"shell-10123766","name":"SHELL GAOUA","brand":"shell","country_code":"BF","lat":10.330548,"lng":-3.183985,"address":"Gaoua","city":"Gaoua","state":"","postcode":"01 BP 569","country":"Burkina Faso","telephone":"+226 25 32 76 00","fuels":["Unleaded 95","Unleaded 91","Diesel","Unleaded 98","High Flow Diesel"],"amenities":["Convenience Store","Full Service","Lube Service","Toilets"],"payments":["Pay at Pump","Fleet Card"],"open24Hours":false,"hours":null,"openStatusRaw":"closed","nextStatusChange":"2026-02-01T06:00:00.783Z"},{"id":"shell-10123732","name":"SHELL GAOUA 2","brand":"shell","country_code":"BF","lat":10.330918,"lng":-3.195211,"address":"Gaoua route de Kampti et de Banfora, Tél: 70264962","city":"Gaoua","state":"","postcode":"01 BP 569","country":"Burkina Faso","telephone":"+226 25 32 76 00","fuels":["Unleaded 95","Unleaded 91","Diesel","Unleaded 98","High Flow Diesel"],"amenities":["Convenience Store","Car Wash","Full Service","Lube Service","Service Bay","Toilets"],"payments":["Pay at Pump","Fleet Card"],"open24Hours":false,"hours":null,"openStatusRaw":"closed","nextStatusChange":"2026-02-01T06:00:00.806Z"},{"id":"shell-10123812","name":"SHELL DIEBOUGOU","brand":"shell","country_code":"BF","lat":10.964632,"lng":-3.249498,"address":"Diébougou","city":"Diebougou","state":"","postcode":"01 BP 569","country":"Burkina Faso","telephone":"+226 25 32 76 00","fuels":["Unleaded 95","Unleaded 91","Diesel","Unleaded 98","High Flow Diesel"],"amenities":["ATM","Convenience Store","Full Service","Lube Service","Service Bay","Toilets","Other"],"payments":["Pay at Pump","Fleet Card"],"open24Hours":false,"hours":null,"openStatusRaw":"closed","nextStatusChange":"2026-02-01T06:00:00.169Z"},{"id":"shell-10123727","name":"SHELL BANFORA","brand":"shell","country_code":"BF","lat":10.634014,"lng":-4.76377,"address":"Banfora","city":"Banfora","state":"","postcode":"01 BP 569","country":"Burkina Faso","telephone":"+226 25 32 76 00","fuels":["Unleaded 95","Unleaded 91","Diesel","Unleaded 98","High Flow Diesel"],"amenities":["Convenience Store","Full Service","Lube Service","Toilets"],"payments":["Pay at Pump","Fleet Card"],"open24Hours":false,"hours":null,"openStatusRaw":"closed","nextStatusChange":"2026-02-01T06:00:00.591Z"},{"id":"shell-10125742","name":"SHELL FOUNZAN","brand":"shell","country_code":"BF","lat":11.476556,"lng":-3.237083,"address":"Entrée ville de Founzan","city":"FOUNZAN","state":"","postcode":"01 BP 569","country":"Burkina Faso","telephone":"+226 25 32 76 00","fuels":["Unleaded 95","Unleaded 91","Diesel","Unleaded 98","High Flow Diesel"],"amenities":["Convenience Store","Full Service","Toilets"],"payments":["Pay at Pump"],"open24Hours":false,"hours":null,"openStatusRaw":"closed","nextStatusChange":"2026-02-01T06:00:00.656Z"},{"id":"shell-10123729","name":"SHELL ROUTE OUAGA 2","brand":"shell","country_code":"BF","lat":11.170087,"lng":-4.253966,"address":"Secteur 25 Route de Ouaga","city":"Bobo-Dioulasso","state":"","postcode":"01 BP 569","country":"Burkina Faso","telephone":"+226 25 32 76 00","fuels":["Unleaded 95","Unleaded 91","Diesel","Unleaded 98","High Flow Diesel"],"amenities":["Convenience Store","Full Service","Lube Service","Toilets","24 Hour"],"payments":["Pay at Pump","Fleet Card"],"open24Hours":true,"hours":null,"openStatusRaw":"twenty_four_hour"},{"id":"shell-10123740","name":"SHELL ROUTE OUAGA 1","brand":"shell","country_code":"BF","lat":11.171347,"lng":-4.267993,"address":"Rond Point. Place de la Femme","city":"Bobo-Dioulasso","state":"","postcode":"01 BP 569","country":"Burkina Faso","telephone":"+226 25 32 76 00","fuels":["Unleaded 95","Unleaded 91","Diesel","Unleaded 98","High Flow Diesel"],"amenities":["Convenience Store","Car Wash","Full Service","Lube Service","Service Bay","Toilets"],"payments":["Pay at Pump","Fleet Card"],"open24Hours":false,"hours":null,"openStatusRaw":"closed","nextStatusChange":"2026-02-01T06:00:00.747Z"},{"id":"shell-10123856","name":"SHELL PO","brand":"shell","country_code":"BF","lat":11.177011,"lng":-1.143767,"address":"Commune de Po (Dakola)/ province du Nahouri, Tél: 68297634 / 76616445","city":"Po","state":"","postcode":"01 BP 569","country":"Burkina Faso","telephone":"+226 25 32 76 00","fuels":["Unleaded 95","Unleaded 91","Diesel","Unleaded 98","High Flow Diesel"],"amenities":["Convenience Store","Full Service","Lube Service","Service Bay","Toilets"],"payments":["Pay at Pump","Fleet Card"],"open24Hours":false,"hours":null,"openStatusRaw":"closed","nextStatusChange":"2026-02-01T06:00:00.472Z"},{"id":"shell-10123774","name":"SHELL DINDEOGO","brand":"shell","country_code":"BF","lat":11.354009,"lng":-0.699983,"address":"Dindéogo, tél 76416718 sur la route de Gombousgou - Zabré","city":"Gom-Boussougou","state":"","postcode":"01 BP 569","country":"Burkina Faso","telephone":"+226 25 32 76 00","fuels":["Unleaded 95","Unleaded 91","Diesel","Unleaded 98","High Flow Diesel"],"amenities":["Convenience Store","Full Service","Lube Service","Service Bay","Toilets"],"payments":["Pay at Pump","Fleet Card"],"open24Hours":false,"hours":null,"openStatusRaw":"closed","nextStatusChange":"2026-02-01T06:00:00.902Z"},{"id":"shell-10123873","name":"SHELL MANGA","brand":"shell","country_code":"BF","lat":11.679499,"lng":-1.088075,"address":"Manga","city":"Manga","state":"","postcode":"01 BP 569","country":"Burkina Faso","telephone":"+226 25 32 76 00","fuels":["Unleaded 95","Unleaded 91","Diesel","Unleaded 98","High Flow Diesel"],"amenities":["Convenience Store","Full Service","Lube Service","Toilets"],"payments":["Pay at Pump","Fleet Card"],"open24Hours":false,"hours":null,"openStatusRaw":"closed","nextStatusChange":"2026-02-01T06:00:00.897Z"},{"id":"shell-10125740","name":"SHELL BOENA","brand":"shell","country_code":"BF","lat":11.57559,"lng":-0.46219,"address":"dans la commune de Ganzourgou, à Boena aprés la mine de orozone","city":"Zorgho","state":"","postcode":"01 BP 569","country":"Burkina Faso","telephone":"+226 25 32 76 00","fuels":["Unleaded 95","Unleaded 91","Diesel","Unleaded 98","High Flow Diesel"],"amenities":["Convenience Store","Full Service","Toilets"],"payments":["Pay at Pump"],"open24Hours":false,"hours":null,"openStatusRaw":"closed","nextStatusChange":"2026-02-01T06:00:00.915Z"},{"id":"shell-10123792","name":"SHELL TENKODOGO","brand":"shell","country_code":"BF","lat":11.794864,"lng":-0.37326,"address":"Tenkodogo","city":"Tenkodogo","state":"","postcode":"01 BP 569","country":"Burkina Faso","telephone":"+226 25 32 76 00","fuels":["Unleaded 95","Unleaded 91","Diesel","Unleaded 98","High Flow Diesel"],"amenities":["Convenience Store","Full Service","Lube Service","Toilets"],"payments":["Pay at Pump","Fleet Card"],"open24Hours":false,"hours":null,"openStatusRaw":"closed","nextStatusChange":"2026-02-01T06:00:00.879Z"},{"id":"shell-10123872","name":"SHELL BEGUEDO","brand":"shell","country_code":"BF","lat":11.810191,"lng":-0.713337,"address":"Tenkodogo, commune de Begeudo","city":"Beguedo","state":"","postcode":"01 BP 569","country":"Burkina Faso","telephone":"+226 25 32 76 00","fuels":["Unleaded 95","Unleaded 91","Diesel","Unleaded 98","High Flow Diesel"],"amenities":["Convenience Store","Full Service","Lube Service","Toilets"],"payments":["Pay at Pump","Fleet Card"],"open24Hours":false,"hours":null,"openStatusRaw":"closed","nextStatusChange":"2026-02-01T06:00:00.897Z"},{"id":"shell-10123781","name":"SHELL FADA","brand":"shell","country_code":"BF","lat":12.059643,"lng":-0.36969,"address":"Fada","city":"Fada N'gourma","state":"","postcode":"01 BP 569","country":"Burkina Faso","telephone":"+226 25 32 76 00","fuels":["Unleaded 95","Unleaded 91","Diesel","Unleaded 98","High Flow Diesel"],"amenities":["Convenience Store","Full Service","Lube Service","Toilets"],"payments":["Pay at Pump","Fleet Card"],"open24Hours":false,"hours":null,"openStatusRaw":"closed","nextStatusChange":"2026-02-01T06:00:00.957Z"},{"id":"shell-10123790","name":"SHELL TOECE","brand":"shell","country_code":"BF","lat":11.823461,"lng":-1.263105,"address":"Toece , Tél: 70 22 15 15, hors lotissement","city":"TOECE","state":"","postcode":"01 BP 569","country":"Burkina Faso","telephone":"+226 25 32 76 00","fuels":["Unleaded 95","Unleaded 91","Diesel","Unleaded 98","High Flow Diesel"],"amenities":["Convenience Store","Car Wash","Full Service","Lube Service","Service Bay","Toilets"],"payments":["Pay at Pump","Fleet Card"],"open24Hours":false,"hours":null,"openStatusRaw":"closed","nextStatusChange":"2026-02-01T06:00:00.022Z"},{"id":"shell-10123749","name":"SHELL POUYTENGA","brand":"shell","country_code":"BF","lat":12.244228,"lng":-0.430683,"address":"Secteur N°1 lot 142 parcelle A Pouytenga, titre foncier n° 165 du 28/07/1986","city":"Pouytenga","state":"","postcode":"01 BP 569","country":"Burkina Faso","telephone":"+226 25 32 76 00","fuels":["Unleaded 95","Unleaded 91","Diesel","Unleaded 98","High Flow Diesel"],"amenities":["Convenience Store","Full Service","Lube Service","Service Bay","Toilets"],"payments":["Pay at Pump","Fleet Card"],"open24Hours":false,"hours":null,"openStatusRaw":"closed","nextStatusChange":"2026-02-01T06:00:00.432Z"},{"id":"shell-10123825","name":"SHELL BOLOMAKOTE","brand":"shell","country_code":"BF","lat":11.167228,"lng":-4.296256,"address":"Avenue. du gouverneur LOUVEAU","city":"Bobo-Dioulasso","state":"","postcode":"01 BP 569","country":"Burkina Faso","telephone":"+226 25 32 76 00","fuels":["Unleaded 95","Unleaded 91","Diesel","Unleaded 98","High Flow Diesel"],"amenities":["Convenience Store","Full Service","Lube Service","Toilets"],"payments":["Pay at Pump","Fleet Card"],"open24Hours":false,"hours":null,"openStatusRaw":"closed","nextStatusChange":"2026-02-01T06:00:00.333Z"},{"id":"shell-10123840","name":"SHELL BINDOUGOUSSO","brand":"shell","country_code":"BF","lat":11.183315,"lng":-4.279181,"address":"Boulevard de la revolution","city":"Bobo-Dioulasso","state":"","postcode":"01 BP 569","country":"Burkina Faso","telephone":"+226 25 32 76 00","fuels":["Unleaded 95","Unleaded 91","Diesel","Unleaded 98","High Flow Diesel"],"amenities":["Convenience Store","Full Service","Lube Service","Toilets"],"payments":["Pay at Pump","Fleet Card"],"open24Hours":false,"hours":null,"openStatusRaw":"closed","nextStatusChange":"2026-02-01T06:00:00.352Z"},{"id":"shell-10123777","name":"SHELL ROUTE AVIATION 1","brand":"shell","country_code":"BF","lat":11.165558,"lng":-4.313286,"address":"Route de l'Aéroport","city":"Bobo-Dioulasso","state":"","postcode":"01 BP 569","country":"Burkina Faso","telephone":"+226 25 32 76 00","fuels":["Unleaded 95","Unleaded 91","Diesel","Unleaded 98","High Flow Diesel"],"amenities":["Convenience Store","Car Wash","Full Service","Lube Service","Service Bay","Toilets"],"payments":["Pay at Pump","Fleet Card"],"open24Hours":false,"hours":null,"openStatusRaw":"closed","nextStatusChange":"2026-02-01T06:00:00.370Z"},{"id":"shell-10123770","name":"SHELL ROUTE AVIATION 2","brand":"shell","country_code":"BF","lat":11.165061,"lng":-4.314431,"address":"Route Aéroport / Route Banfora","city":"Bobo-Dioulasso","state":"","postcode":"01 BP 569","country":"Burkina Faso","telephone":"+226 25 32 76 00","fuels":["Unleaded 95","Unleaded 91","Diesel","Unleaded 98","High Flow Diesel"],"amenities":["ATM","Convenience Store","Full Service","Lube Service","Service Bay","Toilets","Other","24 Hour"],"payments":["Pay at Pump","Fleet Card"],"open24Hours":true,"hours":null,"openStatusRaw":"twenty_four_hour"},{"id":"shell-10123725","name":"SHELL LIBERTE","brand":"shell","country_code":"BF","lat":11.182585,"lng":-4.298551,"address":"Avenue de la liberte","city":"Bobo-Dioulasso","state":"","postcode":"01 BP 569","country":"Burkina Faso","telephone":"+226 25 32 76 00","fuels":["Unleaded 95","Unleaded 91","Diesel","Unleaded 98","High Flow Diesel"],"amenities":["Convenience Store","Car Wash","Full Service","Lube Service","Toilets"],"payments":["Pay at Pump","Fleet Card"],"open24Hours":false,"hours":null,"openStatusRaw":"closed","nextStatusChange":"2026-02-01T06:00:00.398Z"},{"id":"shell-10123765","name":"SHELL BOULEVARD REVOLUTION","brand":"shell","country_code":"BF","lat":11.185931,"lng":-4.29649,"address":"Boulevard de la jeunesse","city":"Bobo-Dioulasso","state":"","postcode":"01 BP 569","country":"Burkina Faso","telephone":"+226 25 32 76 00","fuels":["Unleaded 95","Unleaded 91","Diesel","Unleaded 98","High Flow Diesel"],"amenities":["Convenience Store","Full Service","Lube Service","Toilets","24 Hour"],"payments":["Pay at Pump","Fleet Card"],"open24Hours":true,"hours":null,"openStatusRaw":"twenty_four_hour"},{"id":"shell-10123741","name":"SHELL ACCART-VILLE","brand":"shell","country_code":"BF","lat":11.175544,"lng":-4.316241,"address":"Quartier Accart ville / Marché des Fruits","city":"Bobo-Dioulasso","state":"","postcode":"01 BP 569","country":"Burkina Faso","telephone":"+226 25 32 76 00","fuels":["Unleaded 95","Unleaded 91","Diesel","Unleaded 98","High Flow Diesel"],"amenities":["ATM","Convenience Store","Full Service","Lube Service","Toilets","Other"],"payments":["Pay at Pump","Fleet Card"],"open24Hours":false,"hours":null,"openStatusRaw":"closed","nextStatusChange":"2026-02-01T06:00:00.425Z"},{"id":"shell-10123795","name":"SHELL ROUTE SEGOU","brand":"shell","country_code":"BF","lat":11.203277,"lng":-4.303731,"address":"Avenue du medecin colonel JAMOT","city":"Bobo-Dioulasso","state":"","postcode":"01 BP 569","country":"Burkina Faso","telephone":"+226 25 32 76 00","fuels":["Unleaded 95","Unleaded 91","Diesel","Unleaded 98","High Flow Diesel"],"amenities":["ATM","Convenience Store","Car Wash","Full Service","Lube Service","Service Bay","Toilets","Other","24 Hour"],"payments":["Pay at Pump","Fleet Card"],"open24Hours":true,"hours":null,"openStatusRaw":"twenty_four_hour"},{"id":"shell-10123755","name":"SHELL ROUTE DEDOUGOU","brand":"shell","country_code":"BF","lat":11.222442,"lng":-4.284668,"address":"Bobo-Dioulasso, secteur 11 sur la Nationale 10","city":"Bobo-Dioulasso","state":"","postcode":"01 BP 569","country":"Burkina Faso","telephone":"+226 25 32 76 00","fuels":["Unleaded 95","Unleaded 91","Diesel","Unleaded 98","High Flow Diesel"],"amenities":["Convenience Store","Car Wash","Full Service","Lube Service","Service Bay","Toilets"],"payments":["Pay at Pump","Fleet Card"],"open24Hours":false,"hours":null,"openStatusRaw":"closed","nextStatusChange":"2026-02-01T06:00:00.454Z"},{"id":"shell-10123745","name":"SHELL ROUTE DU STADE","brand":"shell","country_code":"BF","lat":11.183108,"lng":-4.330583,"address":"Boulevard Revolution (Route du stade)","city":"Bobo-Dioulasso","state":"","postcode":"01 BP 569","country":"Burkina Faso","telephone":"+226 25 32 76 00","fuels":["Unleaded 95","Unleaded 91","Diesel","Unleaded 98","High Flow Diesel"],"amenities":["Convenience Store","Full Service","Lube Service","Toilets"],"payments":["Pay at Pump","Fleet Card"],"open24Hours":false,"hours":null,"openStatusRaw":"closed","nextStatusChange":"2026-02-01T06:00:00.473Z"},{"id":"shell-10123857","name":"SHELL BELLE VILLE","brand":"shell","country_code":"BF","lat":11.179727,"lng":-4.347706,"address":"Quartier Belle-Ville","city":"Bobo-Dioulasso","state":"","postcode":"01 BP 569","country":"Burkina Faso","telephone":"+226 25 32 76 00","fuels":["Unleaded 95","Unleaded 91","Diesel","Unleaded 98","High Flow Diesel"],"amenities":["Convenience Store","Full Service","Lube Service","Toilets"],"payments":["Pay at Pump","Fleet Card"],"open24Hours":false,"hours":null,"openStatusRaw":"closed","nextStatusChange":"2026-02-01T06:00:00.492Z"},{"id":"shell-10123794","name":"SHELL BOROMO","brand":"shell","country_code":"BF","lat":11.757846,"lng":-2.927318,"address":"Boromo","city":"Boromo","state":"","postcode":"01 BP 569","country":"Burkina Faso","telephone":"+226 25 32 76 00","fuels":["Unleaded 95","Unleaded 91","Diesel","Unleaded 98","High Flow Diesel"],"amenities":["Convenience Store","Full Service","Lube Service","Toilets"],"payments":["Pay at Pump","Fleet Card"],"open24Hours":false,"hours":null,"openStatusRaw":"closed","nextStatusChange":"2026-02-01T06:00:00.529Z"},{"id":"shell-10123827","name":"SHELL ORODARA","brand":"shell","country_code":"BF","lat":10.98266,"lng":-4.913615,"address":"Orodara","city":"Orodara","state":"","postcode":"01 BP 569","country":"Burkina Faso","telephone":"+226 25 32 76 00","fuels":["Unleaded 95","Unleaded 91","Diesel","Unleaded 98","High Flow Diesel"],"amenities":["Convenience Store","Full Service","Lube Service","Toilets"],"payments":["Pay at Pump","Fleet Card"],"open24Hours":false,"hours":null,"openStatusRaw":"closed","nextStatusChange":"2026-02-01T06:00:00.885Z"},{"id":"shell-10123788","name":"SHELL SABOU","brand":"shell","country_code":"BF","lat":12.057685,"lng":-2.234006,"address":"Sabou, route de Bobo, Secteur 15/Section ND/Lot 06/Parcelle 12","city":"Sabou","state":"","postcode":"01 BP 569","country":"Burkina Faso","telephone":"+226 25 32 76 00","fuels":["Unleaded 95","Unleaded 91","Diesel","Unleaded 98","High Flow Diesel"],"amenities":["Convenience Store","Car Wash","Full Service","Lube Service","Service Bay","Toilets"],"payments":["Pay at Pump","Fleet Card"],"open24Hours":false,"hours":null,"openStatusRaw":"closed","nextStatusChange":"2026-02-01T06:00:00.795Z"},{"id":"shell-10123743","name":"SHELL KOUDOUGOU 2","brand":"shell","country_code":"BF","lat":12.243524,"lng":-2.40008,"address":"Secteur  9,  Koudougou Route Dédougou (en face de l'unversité)","city":"Koudougou","state":"","postcode":"01 BP 569","country":"Burkina Faso","telephone":"+226 25 32 76 00","fuels":["Unleaded 95","Unleaded 91","Diesel","Unleaded 98","High Flow Diesel"],"amenities":["Convenience Store","Full Service","Lube Service","Toilets"],"payments":["Pay at Pump","Fleet Card"],"open24Hours":false,"hours":null,"openStatusRaw":"closed","nextStatusChange":"2026-02-01T06:00:00.144Z"},{"id":"shell-10123736","name":"SHELL KOMBISSIRI","brand":"shell","country_code":"BF","lat":12.05048,"lng":-1.20435,"address":"Kombissiri, Route de Po, Tél: 70864350 / 76414568","city":"Kombissiri","state":"","postcode":"01 BP 569","country":"Burkina Faso","telephone":"+226 25 32 76 00","fuels":["Unleaded 95","Unleaded 91","Diesel","Unleaded 98","High Flow Diesel"],"amenities":["Convenience Store","Full Service","Lube Service","Service Bay","Toilets"],"payments":["Pay at Pump","Fleet Card"],"open24Hours":false,"hours":null,"openStatusRaw":"closed","nextStatusChange":"2026-02-01T06:00:00.520Z"},{"id":"shell-10125743","name":"SHELL TINTILOU","brand":"shell","country_code":"BF","lat":12.215201,"lng":-1.80409,"address":"Sur la RN 1, à Tintilou. Kabré Amidou, Tél: 78071298 / 70736679","city":"Tintilou","state":"","postcode":"01 BP 569","country":"Burkina Faso","telephone":"+226 25 32 76 00","fuels":["Unleaded 95","Unleaded 91","Diesel","Unleaded 98","High Flow Diesel"],"amenities":["Convenience Store","Full Service","Lube Service","Toilets"],"payments":["Pay at Pump","Fleet Card"],"open24Hours":false,"hours":null,"openStatusRaw":"closed","nextStatusChange":"2026-02-01T06:00:00.554Z"},{"id":"shell-10123762","name":"SHELL KOUBRI","brand":"shell","country_code":"BF","lat":12.205129,"lng":-1.410289,"address":"Koubri, sur RN5 sur route de Po, Tél : 70203959","city":"Koubri","state":"","postcode":"01 BP 569","country":"Burkina Faso","telephone":"+226 25 32 76 00","fuels":["Unleaded 95","Unleaded 91","Diesel","Unleaded 98","High Flow Diesel"],"amenities":["Convenience Store","Car Wash","Full Service","Lube Service","Service Bay","Toilets"],"payments":["Pay at Pump","Fleet Card"],"open24Hours":false,"hours":null,"openStatusRaw":"closed","nextStatusChange":"2026-02-01T06:00:00.586Z"},{"id":"shell-10125733","name":"SHELL KOUBA 2","brand":"shell","country_code":"BF","lat":12.23995,"lng":-1.430365,"address":"Koubri, sur RN5 vers le péage","city":"Ouagadougou","state":"","postcode":"01 BP 569","country":"Burkina Faso","telephone":"+226 25 32 76 00","fuels":["Unleaded 95","Unleaded 91","Diesel","Unleaded 98","High Flow Diesel"],"amenities":["Convenience Store","Car Wash","Full Service","Service Bay","Toilets"],"payments":["Pay at Pump"],"open24Hours":false,"hours":null,"openStatusRaw":"closed","nextStatusChange":"2026-02-01T06:00:00.636Z"},{"id":"shell-10125734","name":"SHELL SABTOANA","brand":"shell","country_code":"BF","lat":12.250477,"lng":-1.490803,"address":"Sabtoana section 959 Lot 06 parcelle 07, Ouaga 2000 Zone C","city":"Ouagadougou","state":"","postcode":"01 BP 569","country":"Burkina Faso","telephone":"+226 25 32 76 00","fuels":["Unleaded 95","Unleaded 91","Diesel","Unleaded 98","High Flow Diesel"],"amenities":["Convenience Store","Full Service","Toilets"],"payments":["Pay at Pump"],"open24Hours":false,"hours":null,"openStatusRaw":"closed","nextStatusChange":"2026-02-01T06:00:00.653Z"},{"id":"shell-10123785","name":"SHELL TINGANDOGO","brand":"shell","country_code":"BF","lat":12.255496,"lng":-1.529795,"address":"Ouagadougou, Secteur 06, tel 70 21 34 59 / 70 11 20 55","city":"Ouagadougou","state":"","postcode":"01 BP 569","country":"Burkina Faso","telephone":"+226 25 32 76 00","fuels":["Unleaded 95","Unleaded 91","Diesel","Unleaded 98","High Flow Diesel"],"amenities":["ATM","Convenience Store","Car Wash","Full Service","Lube Service","Service Bay","Toilets","Other"],"payments":["Pay at Pump","Fleet Card"],"open24Hours":false,"hours":null,"openStatusRaw":"closed","nextStatusChange":"2026-02-01T06:00:00.669Z"},{"id":"shell-10123734","name":"SHELL REO","brand":"shell","country_code":"BF","lat":12.255496,"lng":-1.529795,"address":"Koudougou, secteur 2, tel 70 26 58 57 / 76 05 33 55","city":"Reo","state":"","postcode":"01 BP 569","country":"Burkina Faso","telephone":"+226 25 32 76 00","fuels":["Unleaded 95","Unleaded 91","Diesel","Unleaded 98","High Flow Diesel"],"amenities":["Convenience Store","Full Service","Lube Service","Toilets"],"payments":["Pay at Pump","Fleet Card"],"open24Hours":false,"hours":null,"openStatusRaw":"closed","nextStatusChange":"2026-02-01T06:00:00.688Z"},{"id":"shell-10125741","name":"SHELL TIGUINDALGUE","brand":"shell","country_code":"BF","lat":12.265884,"lng":-1.594839,"address":"Dans le quartier de Tiguidalgué à Ouagadougou","city":"Ouagadougou","state":"","postcode":"01 BP 569","country":"Burkina Faso","telephone":"+226 25 32 76 00","fuels":["Unleaded 95","Unleaded 91","Diesel","Unleaded 98","High Flow Diesel"],"amenities":["Convenience Store","Full Service","Toilets"],"payments":["Pay at Pump"],"open24Hours":false,"hours":null,"openStatusRaw":"closed","nextStatusChange":"2026-02-01T06:00:00.705Z"},{"id":"shell-10125729","name":"SHELL YAGMA","brand":"shell","country_code":"BF","lat":12.25526,"lng":-1.375818,"address":"At Ouaga, Yagma","city":"Ouagadougou","state":"","postcode":"01 BP 569","country":"Burkina Faso","telephone":"+226 25 32 76 00","fuels":["Unleaded 95","Unleaded 91","Diesel","Unleaded 98","High Flow Diesel"],"amenities":["Convenience Store","Full Service","Toilets"],"payments":["Pay at Pump"],"open24Hours":false,"hours":null,"openStatusRaw":"closed","nextStatusChange":"2026-02-01T06:00:00.573Z"},{"id":"shell-10123820","name":"SHELL KOUBA","brand":"shell","country_code":"BF","lat":12.27802,"lng":-1.455976,"address":"Koubri, sur RN5 aprés golf club, Tél. 71717120","city":"Ouagadougou","state":"","postcode":"01 BP 569","country":"Burkina Faso","telephone":"+226 25 32 76 00","fuels":["Unleaded 95","Unleaded 91","Diesel","Unleaded 98","High Flow Diesel"],"amenities":["Convenience Store","Car Wash","Full Service","Lube Service","Service Bay","Toilets"],"payments":["Pay at Pump","Fleet Card"],"open24Hours":false,"hours":null,"openStatusRaw":"closed","nextStatusChange":"2026-02-01T06:00:00.686Z"},{"id":"shell-10123742","name":"SHELL ZORGHO","brand":"shell","country_code":"BF","lat":12.244893,"lng":-0.640561,"address":"Zorgho, Secteur 5, sur Nationale 4","city":"Zorgho","state":"","postcode":"01 BP 569","country":"Burkina Faso","telephone":"+226 25 32 76 00","fuels":["Unleaded 95","Unleaded 91","Diesel","Unleaded 98","High Flow Diesel"],"amenities":["Convenience Store","Full Service","Lube Service","Service Bay","Toilets"],"payments":["Pay at Pump","Fleet Card"],"open24Hours":false,"hours":null,"openStatusRaw":"closed","nextStatusChange":"2026-02-01T06:00:00.727Z"},{"id":"shell-10123730","name":"SHELL BALKUY","brand":"shell","country_code":"BF","lat":12.293698,"lng":-1.467532,"address":"Nationale 5 / Route de Po","city":"Ouagadougou","state":"","postcode":"01 BP 569","country":"Burkina Faso","telephone":"+226 25 32 76 00","fuels":["Unleaded 95","Unleaded 91","Diesel","Unleaded 98","High Flow Diesel"],"amenities":["ATM","Convenience Store","Car Wash","Full Service","Lube Service","Service Bay","Toilets","Other","24 Hour"],"payments":["Pay at Pump","Fleet Card"],"open24Hours":true,"hours":null,"openStatusRaw":"twenty_four_hour"},{"id":"shell-10125728","name":"SHELL MOGTEDO","brand":"shell","country_code":"BF","lat":12.286375,"lng":-0.837454,"address":"A mogtedo, RN4 au centre","city":"MOGTEDO","state":"","postcode":"01 BP 569","country":"Burkina Faso","telephone":"+226 25 32 76 00","fuels":["Unleaded 95","Unleaded 91","Diesel","Unleaded 98","High Flow Diesel"],"amenities":["Convenience Store","Full Service","Service Bay","Toilets"],"payments":["Pay at Pump"],"open24Hours":false,"hours":null,"openStatusRaw":"closed","nextStatusChange":"2026-02-01T06:00:00.639Z"},{"id":"shell-10125732","name":"SHELL RAYONGO","brand":"shell","country_code":"BF","lat":12.321039,"lng":-1.444108,"address":"Rayongo, Tél. 71717120","city":"Ouagadougou","state":"","postcode":"01 BP 569","country":"Burkina Faso","telephone":"+226 25 32 76 00","fuels":["Unleaded 95","Unleaded 91","Diesel","Unleaded 98","High Flow Diesel"],"amenities":["Convenience Store","Car Wash","Full Service","Service Bay","Toilets"],"payments":["Pay at Pump"],"open24Hours":false,"hours":null,"openStatusRaw":"closed","nextStatusChange":"2026-02-01T06:00:00.900Z"},{"id":"shell-10123862","name":"SHELL NAGRIN","brand":"shell","country_code":"BF","lat":12.293323,"lng":-1.529717,"address":"Nationale 6 / Route Hopital BC","city":"Ouagadougou","state":"","postcode":"01 BP 569","country":"Burkina Faso","telephone":"+226 25 32 76 00","fuels":["Unleaded 95","Unleaded 91","Diesel","Unleaded 98","High Flow Diesel"],"amenities":["ATM","Convenience Store","Car Wash","Full Service","Lube Service","Service Bay","Toilets","Other"],"payments":["Pay at Pump","Fleet Card"],"open24Hours":false,"hours":null,"openStatusRaw":"closed","nextStatusChange":"2026-02-01T06:00:00.916Z"},{"id":"shell-10123783","name":"SHELL KARPALA","brand":"shell","country_code":"BF","lat":12.320918,"lng":-1.462549,"address":"Secteur 51, Ouagadougou","city":"Ouagadougou","state":"","postcode":"01 BP 569","country":"Burkina Faso","telephone":"+226 25 32 76 00","fuels":["Unleaded 95","Unleaded 91","Diesel","Unleaded 98","High Flow Diesel"],"amenities":["ATM","Convenience Store","Car Wash","Full Service","Lube Service","Service Bay","Toilets","Other"],"payments":["Pay at Pump","Fleet Card"],"open24Hours":false,"hours":null,"openStatusRaw":"closed","nextStatusChange":"2026-02-01T06:00:00.932Z"},{"id":"shell-10123805","name":"SHELL BONHEUR VILLE 2","brand":"shell","country_code":"BF","lat":12.286221,"lng":-1.576537,"address":"Ouagadougou, ex-Secteur 42, Tél: 70305688/76619099","city":"Ouagadougou","state":"","postcode":"01 BP 569","country":"Burkina Faso","telephone":"+226 25 32 76 00","fuels":["Unleaded 95","Unleaded 91","Diesel","Unleaded 98","High Flow Diesel"],"amenities":["Convenience Store","Car Wash","Full Service","Lube Service","Service Bay","Toilets"],"payments":["Pay at Pump","Fleet Card"],"open24Hours":false,"hours":null,"openStatusRaw":"closed","nextStatusChange":"2026-02-01T06:00:00.956Z"},{"id":"shell-10123771","name":"SHELL TRAME DACCUEIL","brand":"shell","country_code":"BF","lat":12.322737,"lng":-1.493718,"address":"Ouagadougou, Secteur 53, sur la Nationale 5","city":"Ouagadougou","state":"","postcode":"01 BP 569","country":"Burkina Faso","telephone":"+226 25 32 76 00","fuels":["Unleaded 95","Unleaded 91","Diesel","Unleaded 98","High Flow Diesel"],"amenities":["Air/Water","Convenience Store","Car Wash","Food Store","Full Service","Lube Service","Other","Service Bay","Toilets"],"payments":["Pay at Pump","Fleet Card"],"open24Hours":false,"hours":null,"openStatusRaw":"closed","nextStatusChange":"2026-02-01T06:00:00.974Z"},{"id":"shell-10125727","name":"SHELL LAYE","brand":"shell","country_code":"BF","lat":12.315898,"lng":1.464881,"address":"In Laye centre, near Ouagadougou, Tél: 70686388","city":"Laye","state":"","postcode":"01 BP 569","country":"Burkina Faso","telephone":"+226 25 32 76 00","fuels":["Unleaded 95","Unleaded 91","Diesel","Unleaded 98","High Flow Diesel"],"amenities":["Convenience Store","Full Service","Toilets"],"payments":["Pay at Pump"],"open24Hours":false,"hours":null,"openStatusRaw":"closed","nextStatusChange":"2026-02-01T06:00:00.940Z"},{"id":"shell-10123758","name":"SHELL SECTEUR 30","brand":"shell","country_code":"BF","lat":12.337319,"lng":-1.4708,"address":"Quartier Karapala / Secteur 30","city":"Ouagadougou","state":"","postcode":"01 BP 569","country":"Burkina Faso","telephone":"+226 25 32 76 00","fuels":["Unleaded 95","Unleaded 91","Diesel","Unleaded 98","High Flow Diesel"],"amenities":["Convenience Store","Full Service","Lube Service","Toilets"],"payments":["Pay at Pump","Fleet Card"],"open24Hours":false,"hours":null,"openStatusRaw":"closed","nextStatusChange":"2026-02-01T06:00:00.048Z"},{"id":"shell-10123811","name":"SHELL OUAGA 2000","brand":"shell","country_code":"BF","lat":12.325827,"lng":-1.502053,"address":"Boulevard Maoumar Khadafi (Route Rond point des martyrs)","city":"Ouagadougou","state":"","postcode":"01 BP 569","country":"Burkina Faso","telephone":"+226 25 32 76 00","fuels":["Unleaded 95","Unleaded 91","Diesel","Unleaded 98","High Flow Diesel"],"amenities":["ATM","Convenience Store","Full Service","Lube Service","Toilets","Other"],"payments":["Pay at Pump","Fleet Card"],"open24Hours":false,"hours":null,"openStatusRaw":"closed","nextStatusChange":"2026-02-01T06:00:00.089Z"},{"id":"shell-10125747","name":"SHELL USTA","brand":"shell","country_code":"BF","lat":12.384779,"lng":-1.42083,"address":"Saaba, Université Saint Thomas d'Acquins","city":"Ouagadougou","state":"","postcode":"01 BP 569","country":"Burkina Faso","telephone":"+226 25 32 76 00","fuels":["Unleaded 95","Unleaded 91","Diesel","Unleaded 98","High Flow Diesel"],"amenities":["Convenience Store","Cafe","Car Wash","Food Store","Full Service","Toilets"],"payments":["Pay at Pump"],"open24Hours":false,"hours":null,"openStatusRaw":"closed","nextStatusChange":"2026-02-01T06:00:00.604Z"},{"id":"shell-10123750","name":"SHELL SANYIRI","brand":"shell","country_code":"BF","lat":12.340953,"lng":-1.482153,"address":"Ouagadougou, karpala, Tél: 70701781 / 78552952","city":"Ouagadougou","state":"","postcode":"01 BP 569","country":"Burkina Faso","telephone":"+226 25 32 76 00","fuels":["Unleaded 95","Unleaded 91","Diesel","Unleaded 98","High Flow Diesel"],"amenities":["Convenience Store","Full Service","Lube Service","Toilets"],"payments":["Pay at Pump","Fleet Card"],"open24Hours":false,"hours":null,"openStatusRaw":"closed","nextStatusChange":"2026-02-01T06:00:00.620Z"},{"id":"shell-10123752","name":"SHELL KOUDOUGOU 1","brand":"shell","country_code":"BF","lat":12.25328,"lng":-2.34986,"address":"Koudougou Secteur 2, Face à la nouvelle gare routière","city":"Koudougou","state":"","postcode":"01 BP 569","country":"Burkina Faso","telephone":"+226 25 32 76 00","fuels":["Unleaded 95","Unleaded 91","Diesel","Unleaded 98","High Flow Diesel"],"amenities":["Convenience Store","Full Service","Lube Service","Toilets"],"payments":["Pay at Pump","Fleet Card"],"open24Hours":false,"hours":null,"openStatusRaw":"closed","nextStatusChange":"2026-02-01T06:00:00.834Z"},{"id":"shell-10123826","name":"SHELL DEDOUGOU 2","brand":"shell","country_code":"BF","lat":12.46421,"lng":-3.463088,"address":"Dédougou, secteur 3, tel 70 64 78 06","city":"Dedougou","state":"","postcode":"01 BP 569","country":"Burkina Faso","telephone":"+226 25 32 76 00","fuels":["Unleaded 95","Unleaded 91","Diesel","Unleaded 98","High Flow Diesel"],"amenities":["Convenience Store","Full Service","Lube Service","Service Bay","Toilets"],"payments":["Pay at Pump","Fleet Card"],"open24Hours":false,"hours":null,"openStatusRaw":"closed","nextStatusChange":"2026-02-01T06:00:00.920Z"},{"id":"shell-10123837","name":"SHELL YIMDI","brand":"shell","country_code":"BF","lat":12.291461,"lng":-1.691416,"address":"Ouagadougou, secteur 29 ex secteur 17, tel 70 77 77 11","city":"Ouagadougou","state":"","postcode":"01 BP 569","country":"Burkina Faso","telephone":"+226 25 32 76 00","fuels":["Unleaded 95","Unleaded 91","Diesel","Unleaded 98","High Flow Diesel"],"amenities":["Convenience Store","Car Wash","Full Service","Lube Service","Service Bay","Toilets"],"payments":["Pay at Pump","Fleet Card"],"open24Hours":false,"hours":null,"openStatusRaw":"closed","nextStatusChange":"2026-02-01T06:00:00.149Z"},{"id":"shell-10123757","name":"SHELL ZAGTOULI","brand":"shell","country_code":"BF","lat":12.326711,"lng":-1.628482,"address":"Zagtouli, Route Bobo Dioulasso","city":"Ouagadougou","state":"","postcode":"01 BP 569","country":"Burkina Faso","telephone":"+226 25 32 76 00","fuels":["Unleaded 95","Unleaded 91","Diesel","Unleaded 98","High Flow Diesel"],"amenities":["Convenience Store","Full Service","Lube Service","Toilets"],"payments":["Pay at Pump","Fleet Card"],"open24Hours":false,"hours":null,"openStatusRaw":"closed","nextStatusChange":"2026-02-01T06:00:00.299Z"},{"id":"shell-10125738","name":"SHELL SONDOGO","brand":"shell","country_code":"BF","lat":12.317347,"lng":-1.600192,"address":"Ouagadougou sur la Route Boansa","city":"Ouagadougou","state":"","postcode":"01 BP 569","country":"Burkina Faso","telephone":"+226 25 32 76 00","fuels":["Unleaded 95","Unleaded 91","Diesel","Unleaded 98","High Flow Diesel"],"amenities":["Convenience Store","Full Service","Toilets"],"payments":["Pay at Pump"],"open24Hours":false,"hours":null,"openStatusRaw":"closed","nextStatusChange":"2026-02-01T06:00:00.301Z"},{"id":"shell-10123810","name":"SHELL BONHEUR VILLE","brand":"shell","country_code":"BF","lat":12.308229,"lng":-1.557502,"address":"Ouagadougou, Secteur 17, 05 BP 569 Ouaga 01 tel 70 21 34 59","city":"Ouagadougou","state":"","postcode":"01 BP 569","country":"Burkina Faso","telephone":"+226 25 32 76 00","fuels":["Unleaded 95","Unleaded 91","Diesel","Unleaded 98","High Flow Diesel"],"amenities":["Convenience Store","Full Service","Lube Service","Toilets"],"payments":["Pay at Pump","Fleet Card"],"open24Hours":false,"hours":null,"openStatusRaw":"closed","nextStatusChange":"2026-02-01T06:00:00.421Z"},{"id":"shell-10125748","name":"SHELL ROUTE WAPASSI","brand":"shell","country_code":"BF","lat":12.319334,"lng":-1.561528,"address":"Quartier Wapassi à Ouagadougou","city":"Ouagadougou","state":"","postcode":"01 BP 569","country":"Burkina Faso","telephone":"+226 25 32 76 00","fuels":["Unleaded 95","Unleaded 91","Diesel","Unleaded 98","High Flow Diesel"],"amenities":["Convenience Store","Full Service","Toilets"],"payments":["Pay at Pump"],"open24Hours":false,"hours":null,"openStatusRaw":"closed","nextStatusChange":"2026-02-01T06:00:00.469Z"},{"id":"shell-10123728","name":"SHELL KOURITENGA","brand":"shell","country_code":"BF","lat":12.319979,"lng":-1.541819,"address":"Secteur 29  Arrondissement 6, Kouritenga","city":"Ouagadougou","state":"","postcode":"01 BP 569","country":"Burkina Faso","telephone":"+226 25 32 76 00","fuels":["Unleaded 95","Unleaded 91","Diesel","Unleaded 98","High Flow Diesel"],"amenities":["Convenience Store","Full Service","Lube Service","Toilets","24 Hour"],"payments":["Pay at Pump","Fleet Card"],"open24Hours":true,"hours":null,"openStatusRaw":"twenty_four_hour"},{"id":"shell-10125736","name":"SHELL ROUTE BOBO","brand":"shell","country_code":"BF","lat":12.329206,"lng":-1.619817,"address":"Sur la RN1 en allant vers le péage, sortie Ouaga","city":"Ouagadougou","state":"","postcode":"01 BP 569","country":"Burkina Faso","telephone":"+226 25 32 76 00","fuels":["Unleaded 95","Unleaded 91","Diesel","Unleaded 98","High Flow Diesel"],"amenities":["Convenience Store","Car Wash","Full Service","Service Bay","Toilets"],"payments":["Pay at Pump"],"open24Hours":false,"hours":null,"openStatusRaw":"closed","nextStatusChange":"2026-02-01T06:00:00.523Z"},{"id":"shell-10123835","name":"SHELL CISSIN CITE ASECNA","brand":"shell","country_code":"BF","lat":12.325022,"lng":-1.533127,"address":"Ouagadougou, ex-Secteur 16, Tél: 78377844","city":"Ouagadougou","state":"","postcode":"01 BP 569","country":"Burkina Faso","telephone":"+226 25 32 76 00","fuels":["Unleaded 95","Unleaded 91","Diesel","Unleaded 98","High Flow Diesel"],"amenities":["Convenience Store","Full Service","Lube Service","Toilets"],"payments":["Pay at Pump","Fleet Card"],"open24Hours":false,"hours":null,"openStatusRaw":"closed","nextStatusChange":"2026-02-01T06:00:00.805Z"},{"id":"shell-10123797","name":"SHELL OUAGARINTER","brand":"shell","country_code":"BF","lat":12.332452,"lng":-1.51445,"address":"Boulevard circulaire","city":"Ouagadougou","state":"","postcode":"01 BP 569","country":"Burkina Faso","telephone":"+226 25 32 76 00","fuels":["Unleaded 95","Unleaded 91","Diesel","Unleaded 98","High Flow Diesel"],"amenities":["Convenience Store","Car Wash","Full Service","Lube Service","Service Bay","Toilets","24 Hour"],"payments":["Pay at Pump","Fleet Card"],"open24Hours":true,"hours":null,"openStatusRaw":"twenty_four_hour"},{"id":"shell-10123751","name":"SHELL SIAO","brand":"shell","country_code":"BF","lat":12.34787,"lng":-1.490396,"address":"Boulevard de la jeunesse","city":"Ouagadougou","state":"","postcode":"01 BP 569","country":"Burkina Faso","telephone":"+226 25 32 76 00","fuels":["Unleaded 95","Unleaded 91","Diesel","Unleaded 98","High Flow Diesel"],"amenities":["Convenience Store","Full Service","Lube Service","Toilets"],"payments":["Pay at Pump","Fleet Card"],"open24Hours":false,"hours":null,"openStatusRaw":"closed","nextStatusChange":"2026-02-01T06:00:00.922Z"},{"id":"shell-10123787","name":"SHELL SAABA","brand":"shell","country_code":"BF","lat":12.388796,"lng":-1.433931,"address":"Ouagadougou, commune de Saaba","city":"Ouagadougou","state":"","postcode":"01 BP 569","country":"Burkina Faso","telephone":"+226 25 32 76 00","fuels":["Unleaded 95","Unleaded 91","Diesel","Unleaded 98","High Flow Diesel"],"amenities":["Air/Water","ATM","Convenience Store","Car Wash","Full Service","Lube Service","Service Bay","Toilets","Other"],"payments":["Pay at Pump","Fleet Card"],"open24Hours":false,"hours":null,"openStatusRaw":"closed","nextStatusChange":"2026-02-01T06:00:00.840Z"},{"id":"shell-10123735","name":"SHELL ROUTE FADA","brand":"shell","country_code":"BF","lat":12.439234,"lng":-1.360286,"address":"Parcelle n°2007-097 du 15/10/2007,Gampela commune Rurale de SAABA","city":"Ouagadougou","state":"","postcode":"01 BP 569","country":"Burkina Faso","telephone":"+226 25 32 76 00","fuels":["Unleaded 95","Unleaded 91","Diesel","Unleaded 98","High Flow Diesel"],"amenities":["Convenience Store","Car Wash","Full Service","Lube Service","Service Bay","Toilets"],"payments":["Pay at Pump","Fleet Card"],"open24Hours":false,"hours":null,"openStatusRaw":"closed","nextStatusChange":"2026-02-01T06:00:00.858Z"},{"id":"shell-10123764","name":"SHELL ZAD","brand":"shell","country_code":"BF","lat":12.340092,"lng":-1.507696,"address":"Avenue des Arts","city":"Ouagadougou","state":"","postcode":"01 BP 569","country":"Burkina Faso","telephone":"+226 25 32 76 00","fuels":["Unleaded 95","Unleaded 91","Diesel","Unleaded 98","High Flow Diesel"],"amenities":["Convenience Store","Full Service","Lube Service","Toilets"],"payments":["Pay at Pump","Fleet Card"],"open24Hours":false,"hours":null,"openStatusRaw":"closed","nextStatusChange":"2026-02-01T06:00:00.905Z"},{"id":"shell-10125735","name":"SHELL 14 YAAR","brand":"shell","country_code":"BF","lat":12.369116,"lng":-1.469972,"address":"Ouagadougou, Secteur 43, tel 70 15 06 00 / 78 80 10 03","city":"Ouagadougou","state":"","postcode":"01 BP 569","country":"Burkina Faso","telephone":"+226 25 32 76 00","fuels":["Unleaded 95","Unleaded 91","Diesel","Unleaded 98","High Flow Diesel"],"amenities":["Convenience Store","Full Service","Lube Service","Toilets"],"payments":["Pay at Pump","Fleet Card"],"open24Hours":false,"hours":null,"openStatusRaw":"closed","nextStatusChange":"2026-02-01T06:00:00.925Z"},{"id":"shell-10123848","name":"SHELL NIOKO 1","brand":"shell","country_code":"BF","lat":12.411575,"lng":-1.419776,"address":"Gampella - Route Fada (Face à la consolatrice)","city":"Ouagadougou","state":"","postcode":"01 BP 569","country":"Burkina Faso","telephone":"+226 25 32 76 00","fuels":["Unleaded 95","Unleaded 91","Diesel","Unleaded 98","High Flow Diesel"],"amenities":["Convenience Store","Car Wash","Full Service","Lube Service","Service Bay","Toilets","24 Hour"],"payments":["Pay at Pump","Fleet Card"],"open24Hours":true,"hours":null,"openStatusRaw":"twenty_four_hour"},{"id":"shell-10123775","name":"SHELL BOULEVARD CIRCULAIRE","brand":"shell","country_code":"BF","lat":12.370917,"lng":-1.475701,"address":"Avenue des Tansoba / Vers l'hopital pédiatrique","city":"Ouagadougou","state":"","postcode":"01 BP 569","country":"Burkina Faso","telephone":"+226 25 32 76 00","fuels":["Unleaded 95","Unleaded 91","Diesel","Unleaded 98","High Flow Diesel"],"amenities":["Convenience Store","Full Service","Lube Service","Toilets"],"payments":["Pay at Pump","Fleet Card"],"open24Hours":false,"hours":null,"openStatusRaw":"closed","nextStatusChange":"2026-02-01T06:00:00.745Z"},{"id":"shell-10123753","name":"SHELL BOULMIOUGOU","brand":"shell","country_code":"BF","lat":12.334894,"lng":-1.600495,"address":"Nationale 1 / Route de Bobo","city":"Ouagadougou","state":"","postcode":"01 BP 569","country":"Burkina Faso","telephone":"+226 25 32 76 00","fuels":["Unleaded 95","Unleaded 91","Diesel","Unleaded 98","High Flow Diesel"],"amenities":["ATM","Convenience Store","Food Store","Full Service","Lube Service","Other","Toilets","24 Hour"],"payments":["Pay at Pump","Fleet Card"],"open24Hours":true,"hours":null,"openStatusRaw":"twenty_four_hour"},{"id":"shell-10125737","name":"SHELL BASSINKO","brand":"shell","country_code":"BF","lat":12.404875,"lng":-1.666475,"address":"Quartier Bassinko, dans les cités","city":"Ouagadougou","state":"","postcode":"01 BP 569","country":"Burkina Faso","telephone":"+226 25 32 76 00","fuels":["Unleaded 95","Unleaded 91","Diesel","Unleaded 98","High Flow Diesel"],"amenities":["Convenience Store","Full Service","Toilets"],"payments":["Pay at Pump"],"open24Hours":false,"hours":null,"openStatusRaw":"closed","nextStatusChange":"2026-02-01T06:00:00.104Z"},{"id":"shell-10123723","name":"SHELL NOUNA DO","brand":"shell","country_code":"BF","lat":12.732907,"lng":-3.851367,"address":"Commune Rurale de Nouna/ province de la Kossi","city":"Nouna","state":"","postcode":"01 BP 569","country":"Burkina Faso","telephone":"+226 25 32 76 00","fuels":["Unleaded 95","Unleaded 91","Diesel","Unleaded 98","High Flow Diesel"],"amenities":["Convenience Store","Car Wash","Full Service","Lube Service","Service Bay","Toilets"],"payments":["Pay at Pump","Fleet Card"],"open24Hours":false,"hours":null,"openStatusRaw":"closed","nextStatusChange":"2026-02-01T06:00:00.121Z"},{"id":"shell-10123754","name":"SHELL PISSY","brand":"shell","country_code":"BF","lat":12.342409,"lng":-1.572265,"address":"Avenue. Kadiogo","city":"Ouagadougou","state":"","postcode":"01 BP 569","country":"Burkina Faso","telephone":"+226 25 32 76 00","fuels":["Unleaded 95","Unleaded 91","Diesel","Unleaded 98","High Flow Diesel"],"amenities":["ATM","Convenience Store","Car Wash","Full Service","Lube Service","Service Bay","Toilets","Other","24 Hour"],"payments":["Pay at Pump","Fleet Card"],"open24Hours":true,"hours":null,"openStatusRaw":"twenty_four_hour"},{"id":"shell-10123724","name":"SHELL ROUTE OUAHIGOUYA","brand":"shell","country_code":"BF","lat":12.419585,"lng":-1.640245,"address":"Secteur 37 , Yagma, Route de Ouahigouya","city":"Ouagadougou","state":"","postcode":"01 BP 569","country":"Burkina Faso","telephone":"+226 25 32 76 00","fuels":["Unleaded 95","Unleaded 91","Diesel","Unleaded 98","High Flow Diesel"],"amenities":["Convenience Store","Car Wash","Full Service","Lube Service","Service Bay","Toilets"],"payments":["Pay at Pump","Fleet Card"],"open24Hours":false,"hours":null,"openStatusRaw":"closed","nextStatusChange":"2026-02-01T06:00:00.213Z"},{"id":"shell-10123818","name":"SHELL ROUTE OUAHIGOUYA 2","brand":"shell","country_code":"BF","lat":12.433001,"lng":-1.65252,"address":"Ouagadougou, Route de Ouahigouya avant le peage","city":"Ouagadougou","state":"","postcode":"01 BP 569","country":"Burkina Faso","telephone":"+226 25 32 76 00","fuels":["Unleaded 95","Unleaded 91","Diesel","Unleaded 98","High Flow Diesel"],"amenities":["Convenience Store","Car Wash","Full Service","Lube Service","Service Bay","Toilets"],"payments":["Pay at Pump","Fleet Card"],"open24Hours":false,"hours":null,"openStatusRaw":"closed","nextStatusChange":"2026-02-01T06:00:00.228Z"},{"id":"shell-10123855","name":"SHELL CISSIN","brand":"shell","country_code":"BF","lat":12.330859,"lng":-1.548651,"address":"Parcelle 10 du lot 54 de la section 17, Arrondissement 06","city":"Ouagadougou","state":"","postcode":"01 BP 569","country":"Burkina Faso","telephone":"+226 25 32 76 00","fuels":["Unleaded 95","Unleaded 91","Diesel","Unleaded 98","High Flow Diesel"],"amenities":["Air/Water","Convenience Store","Car Wash","Full Service","Lube Service","Service Bay","Toilets"],"payments":["Pay at Pump","Fleet Card"],"open24Hours":false,"hours":null,"openStatusRaw":"closed","nextStatusChange":"2026-02-01T06:00:00.436Z"},{"id":"shell-10123769","name":"SHELL PATTE DOIE","brand":"shell","country_code":"BF","lat":12.333382,"lng":-1.526504,"address":"Avenue Bassawarga","city":"Ouagadougou","state":"","postcode":"01 BP 569","country":"Burkina Faso","telephone":"+226 25 32 76 00","fuels":["Unleaded 95","Unleaded 91","Diesel","Unleaded 98","High Flow Diesel"],"amenities":["Convenience Store","Full Service","Lube Service","Toilets","24 Hour"],"payments":["Pay at Pump","Fleet Card"],"open24Hours":true,"hours":null,"openStatusRaw":"twenty_four_hour"},{"id":"shell-10123733","name":"SHELL GOUNGHIN","brand":"shell","country_code":"BF","lat":12.353461,"lng":-1.542479,"address":"Avenue Simon Compaoré / Gounghin","city":"Ouagadougou","state":"","postcode":"01 BP 569","country":"Burkina Faso","telephone":"+226 25 32 76 00","fuels":["Unleaded 95","Unleaded 91","Diesel","Unleaded 98","High Flow Diesel"],"amenities":["Convenience Store","Full Service","Lube Service","Toilets"],"payments":["Pay at Pump","Fleet Card"],"open24Hours":false,"hours":null,"openStatusRaw":"closed","nextStatusChange":"2026-02-01T06:00:00.589Z"},{"id":"shell-10123779","name":"SHELL TOEYIBIN","brand":"shell","country_code":"BF","lat":12.339228,"lng":-1.517645,"address":"Secteur 25, Toeyibin (Côte Sud Est aéroport)","city":"Ouagadougou","state":"","postcode":"01 BP 569","country":"Burkina Faso","telephone":"+226 25 32 76 00","fuels":["Unleaded 95","Unleaded 91","Diesel","Unleaded 98","High Flow Diesel"],"amenities":["Convenience Store","Full Service","Lube Service","Toilets"],"payments":["Pay at Pump","Fleet Card"],"open24Hours":false,"hours":null,"openStatusRaw":"closed","nextStatusChange":"2026-02-01T06:00:00.629Z"},{"id":"shell-10123738","name":"SHELL STADE DU 4 AOÛT","brand":"shell","country_code":"BF","lat":12.36651,"lng":-1.552903,"address":"Rue 9.04","city":"Ouagadougou","state":"","postcode":"01 BP 569","country":"Burkina Faso","telephone":"+226 25 32 76 00","fuels":["Unleaded 95","Unleaded 91","Diesel","Unleaded 98","High Flow Diesel"],"amenities":["Convenience Store","Full Service","Lube Service"],"payments":["Pay at Pump","Fleet Card"],"open24Hours":false,"hours":null,"openStatusRaw":"closed","nextStatusChange":"2026-02-01T06:00:00.649Z"},{"id":"shell-10123778","name":"SHELL SAINT CAMILLE","brand":"shell","country_code":"BF","lat":12.36046,"lng":-1.494467,"address":"Avenue Babanguida","city":"Ouagadougou","state":"","postcode":"01 BP 569","country":"Burkina Faso","telephone":"+226 25 32 76 00","fuels":["Unleaded 95","Unleaded 91","Diesel","Unleaded 98","High Flow Diesel"],"amenities":["Convenience Store","Full Service","Lube Service","Service Bay","Toilets","24 Hour"],"payments":["Pay at Pump","Fleet Card"],"open24Hours":true,"hours":null,"openStatusRaw":"twenty_four_hour"},{"id":"shell-10125726","name":"SHELL WEMTENGA","brand":"shell","country_code":"BF","lat":12.367461,"lng":-1.483053,"address":"Wentenga, derrière maison de la femme à Ouaga","city":"Ouagadougou","state":"","postcode":"01 BP 569","country":"Burkina Faso","telephone":"+226 25 32 76 00","fuels":["Unleaded 95","Unleaded 91","Diesel","Unleaded 98","High Flow Diesel"],"amenities":["Convenience Store","Full Service","Toilets"],"payments":["Pay at Pump"],"open24Hours":false,"hours":null,"openStatusRaw":"closed","nextStatusChange":"2026-02-01T06:00:00.076Z"},{"id":"shell-10125731","name":"SHELL ZINIARE 2 DO","brand":"shell","country_code":"BF","lat":12.584939,"lng":-1.292904,"address":"Ziniaré, à côté du marché central de Ziniaré","city":"Ziniaré","state":"","postcode":"01 BP 569","country":"Burkina Faso","telephone":"+226 25 32 76 00","fuels":["Unleaded 95","Unleaded 91","Diesel","Unleaded 98","High Flow Diesel"],"amenities":["Convenience Store","Full Service","Toilets"],"payments":["Pay at Pump","Fleet Card"],"open24Hours":false,"hours":null,"openStatusRaw":"closed","nextStatusChange":"2026-02-01T06:00:00.958Z"},{"id":"shell-10123747","name":"SHELL ZINIARE","brand":"shell","country_code":"BF","lat":12.588197,"lng":-1.30126,"address":"Ziniaré, secteur 3 sur la Nationale 3","city":"Ziniare","state":"","postcode":"01 BP 569","country":"Burkina Faso","telephone":"+226 25 32 76 00","fuels":["Unleaded 95","Unleaded 91","Diesel","Unleaded 98","High Flow Diesel"],"amenities":["Convenience Store","Car Wash","Full Service","Lube Service","Service Bay","Toilets"],"payments":["Pay at Pump","Fleet Card"],"open24Hours":false,"hours":null,"openStatusRaw":"closed","nextStatusChange":"2026-02-01T06:00:00.051Z"}]